{"id":"FO","country":"Faroe Islands","postal":{"100":{"code":"100","region":"Streymoy","city":"Torshavn","latitude":62.00973,"longitude":-6.77164},"110":{"code":"110","region":"Streymoy","city":"Torshavn","latitude":62.00973,"longitude":-6.77164},"188":{"code":"188","region":"Streymoy","city":"Hoyvik","latitude":62.03407,"longitude":-6.78127},"355":{"code":"355","region":"Streymoy","city":"Vestmanna","latitude":62.15639,"longitude":-7.16639},"380":{"code":"380","region":"Vagar","city":"Sorvagur","latitude":62.09726,"longitude":-7.3577},"410":{"code":"410","region":"Streymoy","city":"Kollafjordhur","latitude":62.11167,"longitude":-6.91067},"512":{"code":"512","region":"Eysturoy","city":"Eystur","latitude":62.20907,"longitude":-6.75247},"535":{"code":"535","region":"Eysturoy","city":"Fuglafjordur","latitude":62.24398,"longitude":-6.81395},"710":{"code":"710","region":"Nordoyar","city":"Klaksvik","latitude":62.22655,"longitude":-6.58901},"910":{"code":"910","region":"Suduroy","city":"Vagur","latitude":61.47324,"longitude":-6.81185}}}