{"id":"IT","country":"Italy","postal":{"10010":{"code":"10010","region":"Piemonte","city":"Banchette","latitude":45.45356,"longitude":7.85632},"10013":{"code":"10013","region":"Piemonte","city":"Borgofranco d'Ivrea","latitude":45.51286,"longitude":7.85802},"10014":{"code":"10014","region":"Piemonte","city":"Torino","latitude":45.07049,"longitude":7.68682},"10015":{"code":"10015","region":"Piemonte","city":"Ivrea","latitude":45.45806,"longitude":7.87192},"10016":{"code":"10016","region":"Piemonte","city":"Montalto Dora","latitude":45.49076,"longitude":7.86282},"10020":{"code":"10020","region":"Piemonte","city":"Verrua Savoia","latitude":45.15675,"longitude":8.09223},"10023":{"code":"10023","region":"Piemonte","city":"Chieri","latitude":45.01395,"longitude":7.82233},"10024":{"code":"10024","region":"Piemonte","city":"Moncalieri","latitude":44.99625,"longitude":7.69032},"10026":{"code":"10026","region":"Piemonte","city":"Santena","latitude":44.94624,"longitude":7.77303},"10028":{"code":"10028","region":"Piemonte","city":"Torino","latitude":45.07049,"longitude":7.68682},"10034":{"code":"10034","region":"Piemonte","city":"Moncalieri","latitude":44.99625,"longitude":7.69032},"10036":{"code":"10036","region":"Piemonte","city":"Settimo Torinese","latitude":45.14025,"longitude":7.76802},"10037":{"code":"10037","region":"Piemonte","city":"Torino","latitude":45.07049,"longitude":7.68682},"10040":{"code":"10040","region":"Piemonte","city":"La Loggia","latitude":44.95774,"longitude":7.66732},"10042":{"code":"10042","region":"Piemonte","city":"Nichelino","latitude":44.99404,"longitude":7.64182},"10044":{"code":"10044","region":"Piemonte","city":"Pianezza","latitude":45.10585,"longitude":7.54342},"10050":{"code":"10050","region":"Piemonte","city":"Chiomonte","latitude":45.11954,"longitude":6.98531},"10051":{"code":"10051","region":"Piemonte","city":"Avigliana","latitude":45.07714,"longitude":7.39862},"10052":{"code":"10052","region":"Piemonte","city":"Bardonecchia","latitude":45.07834,"longitude":6.7032},"10053":{"code":"10053","region":"Piemonte","city":"Bussoleno","latitude":45.14034,"longitude":7.14641},"10056":{"code":"10056","region":"Piemonte","city":"Oulx","latitude":45.03554,"longitude":6.8338},"10059":{"code":"10059","region":"Piemonte","city":"Susa","latitude":45.13754,"longitude":7.05461},"10060":{"code":"10060","region":"Piemonte","city":"San Secondo di Pinerolo","latitude":44.86644,"longitude":7.29842},"10062":{"code":"10062","region":"Piemonte","city":"Luserna San Giovanni","latitude":44.81544,"longitude":7.25132},"10063":{"code":"10063","region":"Piemonte","city":"Perosa Argentina","latitude":44.95744,"longitude":7.19091},"10064":{"code":"10064","region":"Piemonte","city":"Pinerolo","latitude":44.88333,"longitude":7.35},"10065":{"code":"10065","region":"Piemonte","city":"San Germano Chisone","latitude":44.90204,"longitude":7.23662},"10066":{"code":"10066","region":"Piemonte","city":"Torre Pellice","latitude":44.81974,"longitude":7.21602},"10069":{"code":"10069","region":"Piemonte","city":"Villar Perosa","latitude":44.91874,"longitude":7.24922},"10075":{"code":"10075","region":"Piemonte","city":"Rivarolo Canavese","latitude":45.33115,"longitude":7.71702},"10078":{"code":"10078","region":"Piemonte","city":"Venaria Reale","latitude":45.12385,"longitude":7.63542},"10080":{"code":"10080","region":"Piemonte","city":"Oglianico","latitude":45.34255,"longitude":7.69372},"10084":{"code":"10084","region":"Piemonte","city":"Forno Canavese","latitude":45.34535,"longitude":7.59102},"10088":{"code":"10088","region":"Piemonte","city":"Volpiano","latitude":45.20145,"longitude":7.77822},"10091":{"code":"10091","region":"Piemonte","city":"Torino","latitude":45.07049,"longitude":7.68682},"10093":{"code":"10093","region":"Piemonte","city":"Collegno","latitude":45.07755,"longitude":7.57242},"10094":{"code":"10094","region":"Piemonte","city":"Giaveno","latitude":45.04704,"longitude":7.34922},"10098":{"code":"10098","region":"Piemonte","city":"Rivoli","latitude":45.07155,"longitude":7.52622},"10099":{"code":"10099","region":"Piemonte","city":"San Mauro Torinese","latitude":45.10585,"longitude":7.75452},"10122":{"code":"10122","region":"Piemonte","city":"Torino","latitude":45.07049,"longitude":7.68682},"10123":{"code":"10123","region":"Piemonte","city":"Torino","latitude":45.07049,"longitude":7.68682},"10124":{"code":"10124","region":"Piemonte","city":"Torino","latitude":45.07049,"longitude":7.68682},"10125":{"code":"10125","region":"Piemonte","city":"Torino","latitude":45.07049,"longitude":7.68682},"10126":{"code":"10126","region":"Piemonte","city":"Torino","latitude":45.07049,"longitude":7.68682},"10127":{"code":"10127","region":"Piemonte","city":"Torino","latitude":45.07049,"longitude":7.68682},"10129":{"code":"10129","region":"Piemonte","city":"Torino","latitude":45.07049,"longitude":7.68682},"10131":{"code":"10131","region":"Piemonte","city":"Torino","latitude":45.07049,"longitude":7.68682},"10134":{"code":"10134","region":"Piemonte","city":"Torino","latitude":45.07049,"longitude":7.68682},"10135":{"code":"10135","region":"Piemonte","city":"Torino","latitude":45.07049,"longitude":7.68682},"10137":{"code":"10137","region":"Piemonte","city":"Torino","latitude":45.07049,"longitude":7.68682},"10138":{"code":"10138","region":"Piemonte","city":"Torino","latitude":45.07049,"longitude":7.68682},"10139":{"code":"10139","region":"Piemonte","city":"Torino","latitude":45.07049,"longitude":7.68682},"10141":{"code":"10141","region":"Piemonte","city":"Torino","latitude":45.07049,"longitude":7.68682},"10142":{"code":"10142","region":"Piemonte","city":"Torino","latitude":45.07049,"longitude":7.68682},"10143":{"code":"10143","region":"Piemonte","city":"Torino","latitude":45.07049,"longitude":7.68682},"10144":{"code":"10144","region":"Piemonte","city":"Torino","latitude":45.07049,"longitude":7.68682},"10146":{"code":"10146","region":"Piemonte","city":"Torino","latitude":45.07049,"longitude":7.68682},"10147":{"code":"10147","region":"Piemonte","city":"Torino","latitude":45.07049,"longitude":7.68682},"10148":{"code":"10148","region":"Piemonte","city":"Torino","latitude":45.07049,"longitude":7.68682},"10151":{"code":"10151","region":"Piemonte","city":"Torino","latitude":45.07049,"longitude":7.68682},"10152":{"code":"10152","region":"Piemonte","city":"Torino","latitude":45.07049,"longitude":7.68682},"10153":{"code":"10153","region":"Piemonte","city":"Torino","latitude":45.07049,"longitude":7.68682},"10154":{"code":"10154","region":"Piemonte","city":"Torino","latitude":45.07049,"longitude":7.68682},"10155":{"code":"10155","region":"Piemonte","city":"Torino","latitude":45.07049,"longitude":7.68682},"10156":{"code":"10156","region":"Piemonte","city":"Torino","latitude":45.07049,"longitude":7.68682},"11013":{"code":"11013","region":"Valle d'Aosta","city":"Courmayeur","latitude":45.79386,"longitude":6.97139},"11020":{"code":"11020","region":"Valle d'Aosta","city":"Ayas","latitude":45.81506,"longitude":7.68911},"11025":{"code":"11025","region":"Valle d'Aosta","city":"Chatillon","latitude":45.75166,"longitude":7.61751},"11026":{"code":"11026","region":"Valle d'Aosta","city":"Pont-Saint-Martin","latitude":45.59536,"longitude":7.79451},"11027":{"code":"11027","region":"Valle d'Aosta","city":"Saint-Vincent","latitude":45.75126,"longitude":7.64861},"11028":{"code":"11028","region":"Valle d'Aosta","city":"Valtournenche","latitude":45.87607,"longitude":7.6243},"11100":{"code":"11100","region":"Valle d'Aosta","city":"Aosta","latitude":45.73736,"longitude":7.3166},"12014":{"code":"12014","region":"Piemonte","city":"Demonte","latitude":44.31553,"longitude":7.29873},"12019":{"code":"12019","region":"Piemonte","city":"Vernante","latitude":44.24503,"longitude":7.53383},"12020":{"code":"12020","region":"Piemonte","city":"Villafalletto","latitude":44.54373,"longitude":7.54013},"12024":{"code":"12024","region":"Piemonte","city":"Costigliole Saluzzo","latitude":44.56453,"longitude":7.48543},"12025":{"code":"12025","region":"Piemonte","city":"Dronero","latitude":44.46573,"longitude":7.35133},"12030":{"code":"12030","region":"Piemonte","city":"Saluzzo","latitude":44.64644,"longitude":7.48623},"12032":{"code":"12032","region":"Piemonte","city":"Barge","latitude":44.72754,"longitude":7.32102},"12035":{"code":"12035","region":"Piemonte","city":"Racconigi","latitude":44.76984,"longitude":7.67893},"12036":{"code":"12036","region":"Piemonte","city":"Revello","latitude":44.65464,"longitude":7.39152},"12037":{"code":"12037","region":"Piemonte","city":"Saluzzo","latitude":44.64644,"longitude":7.48623},"12038":{"code":"12038","region":"Piemonte","city":"Savigliano","latitude":44.64404,"longitude":7.65593},"12039":{"code":"12039","region":"Piemonte","city":"Verzuolo","latitude":44.59503,"longitude":7.48353},"12040":{"code":"12040","region":"Piemonte","city":"Cervere","latitude":44.63544,"longitude":7.79193},"12041":{"code":"12041","region":"Piemonte","city":"Bene Vagienna","latitude":44.54334,"longitude":7.82834},"12042":{"code":"12042","region":"Piemonte","city":"Pocapaglia","latitude":44.71524,"longitude":7.88293},"12043":{"code":"12043","region":"Piemonte","city":"Canale","latitude":44.79854,"longitude":7.99733},"12045":{"code":"12045","region":"Piemonte","city":"Fossano","latitude":44.54894,"longitude":7.72013},"12051":{"code":"12051","region":"Piemonte","city":"Alba","latitude":44.6999,"longitude":8.0347},"12058":{"code":"12058","region":"Piemonte","city":"Santo Stefano Belbo","latitude":44.70654,"longitude":8.22604},"12060":{"code":"12060","region":"Piemonte","city":"Magliano Alpi","latitude":44.45963,"longitude":7.80534},"12061":{"code":"12061","region":"Piemonte","city":"Carru","latitude":44.48104,"longitude":7.87444},"12063":{"code":"12063","region":"Piemonte","city":"Dogliani","latitude":44.53094,"longitude":7.94724},"12073":{"code":"12073","region":"Piemonte","city":"Ceva","latitude":44.38253,"longitude":8.02554},"12074":{"code":"12074","region":"Piemonte","city":"Cortemilia","latitude":44.57794,"longitude":8.19294},"12078":{"code":"12078","region":"Piemonte","city":"Ormea","latitude":44.15573,"longitude":7.92444},"12079":{"code":"12079","region":"Piemonte","city":"Salicetto","latitude":44.41334,"longitude":8.16864},"12080":{"code":"12080","region":"Piemonte","city":"Pianfei","latitude":44.37203,"longitude":7.71144},"12084":{"code":"12084","region":"Piemonte","city":"Mondovi","latitude":44.39603,"longitude":7.81764},"12089":{"code":"12089","region":"Piemonte","city":"Villanova Mondovi","latitude":44.34693,"longitude":7.76634},"12100":{"code":"12100","region":"Piemonte","city":"Cuneo","latitude":44.39733,"longitude":7.54453},"13011":{"code":"13011","region":"Piemonte","city":"Borgosesia","latitude":45.71447,"longitude":8.27992},"13017":{"code":"13017","region":"Piemonte","city":"Quarona","latitude":45.75787,"longitude":8.26572},"13019":{"code":"13019","region":"Piemonte","city":"Varallo","latitude":45.81387,"longitude":8.25902},"13039":{"code":"13039","region":"Piemonte","city":"Trino","latitude":45.19206,"longitude":8.29613},"13040":{"code":"13040","region":"Piemonte","city":"Alice Castello","latitude":45.36516,"longitude":8.07292},"13046":{"code":"13046","region":"Piemonte","city":"Livorno Ferraris","latitude":45.28406,"longitude":8.07743},"13047":{"code":"13047","region":"Piemonte","city":"San Germano Vercellese","latitude":45.35036,"longitude":8.24783},"13048":{"code":"13048","region":"Piemonte","city":"Santhia","latitude":45.36626,"longitude":8.17263},"13049":{"code":"13049","region":"Piemonte","city":"Tronzano Vercellese","latitude":45.34126,"longitude":8.17303},"13100":{"code":"13100","region":"Piemonte","city":"Vercelli","latitude":45.32306,"longitude":8.41533},"13835":{"code":"13835","region":"Piemonte","city":"Trivero","latitude":45.66047,"longitude":8.17402},"13853":{"code":"13853","region":"Piemonte","city":"Lessona","latitude":45.58516,"longitude":8.19512},"13855":{"code":"13855","region":"Piemonte","city":"Valdengo","latitude":45.56706,"longitude":8.13832},"13856":{"code":"13856","region":"Piemonte","city":"Biella","latitude":45.55986,"longitude":8.05002},"13862":{"code":"13862","region":"Piemonte","city":"Brusnengo","latitude":45.59386,"longitude":8.25192},"13863":{"code":"13863","region":"Piemonte","city":"Coggiola","latitude":45.68437,"longitude":8.18362},"13864":{"code":"13864","region":"Piemonte","city":"Crevacuore","latitude":45.68687,"longitude":8.24672},"13867":{"code":"13867","region":"Piemonte","city":"Pray","latitude":45.67467,"longitude":8.20432},"13874":{"code":"13874","region":"Piemonte","city":"Mottalciata","latitude":45.50506,"longitude":8.20672},"13876":{"code":"13876","region":"Piemonte","city":"Sandigliano","latitude":45.51856,"longitude":8.07752},"13881":{"code":"13881","region":"Piemonte","city":"Cavaglia","latitude":45.40746,"longitude":8.09332},"13894":{"code":"13894","region":"Piemonte","city":"Gaglianico","latitude":45.53786,"longitude":8.07502},"13896":{"code":"13896","region":"Piemonte","city":"Netro","latitude":45.53806,"longitude":7.94532},"13897":{"code":"13897","region":"Piemonte","city":"Occhieppo Inferiore","latitude":45.55006,"longitude":8.02102},"13900":{"code":"13900","region":"Piemonte","city":"Biella","latitude":45.55986,"longitude":8.05002},"14011":{"code":"14011","region":"Piemonte","city":"Asti","latitude":44.89795,"longitude":8.20684},"14022":{"code":"14022","region":"Lazio","city":"Rome","latitude":41.89474,"longitude":12.4839},"14030":{"code":"14030","region":"Piemonte","city":"Viarigi","latitude":44.98055,"longitude":8.35714},"14036":{"code":"14036","region":"Piemonte","city":"Moncalvo","latitude":45.05025,"longitude":8.26524},"14041":{"code":"14041","region":"Piemonte","city":"Agliano Terme","latitude":44.79025,"longitude":8.25044},"14045":{"code":"14045","region":"Piemonte","city":"Incisa Scapaccino","latitude":44.80805,"longitude":8.37584},"14049":{"code":"14049","region":"Piemonte","city":"Nizza Monferrato","latitude":44.77385,"longitude":8.35394},"14052":{"code":"14052","region":"Piemonte","city":"Calosso","latitude":44.73994,"longitude":8.22714},"14053":{"code":"14053","region":"Piemonte","city":"Canelli","latitude":44.72154,"longitude":8.29244},"14100":{"code":"14100","region":"Piemonte","city":"Asti","latitude":44.89795,"longitude":8.20684},"15010":{"code":"15010","region":"Piemonte","city":"Visone","latitude":44.66184,"longitude":8.50075},"15011":{"code":"15011","region":"Piemonte","city":"Acqui Terme","latitude":44.67514,"longitude":8.46755},"15012":{"code":"15012","region":"Piemonte","city":"Bistagno","latitude":44.66014,"longitude":8.37034},"15018":{"code":"15018","region":"Piemonte","city":"Spigno Monferrato","latitude":44.54314,"longitude":8.33395},"15020":{"code":"15020","region":"Piemonte","city":"Cerrina Monferrato","latitude":45.12135,"longitude":8.21383},"15023":{"code":"15023","region":"Piemonte","city":"Felizzano","latitude":44.89935,"longitude":8.43584},"15027":{"code":"15027","region":"Piemonte","city":"Pontestura","latitude":45.14246,"longitude":8.33324},"15028":{"code":"15028","region":"Piemonte","city":"Quattordio","latitude":44.89635,"longitude":8.40494},"15030":{"code":"15030","region":"Piemonte","city":"Conzano","latitude":45.02045,"longitude":8.45394},"15033":{"code":"15033","region":"Piemonte","city":"Casale Monferrato","latitude":45.13336,"longitude":8.45714},"15039":{"code":"15039","region":"Piemonte","city":"Ozzano Monferrato","latitude":45.10826,"longitude":8.37204},"15040":{"code":"15040","region":"Piemonte","city":"Mirabello Monferrato","latitude":45.03555,"longitude":8.52324},"15041":{"code":"15041","region":"Piemonte","city":"Viarigi","latitude":44.98055,"longitude":8.35714},"15045":{"code":"15045","region":"Piemonte","city":"Sale","latitude":44.98066,"longitude":8.80935},"15053":{"code":"15053","region":"Piemonte","city":"Castelnuovo Scrivia","latitude":44.98046,"longitude":8.88125},"15055":{"code":"15055","region":"Piemonte","city":"Pontecurone","latitude":44.96016,"longitude":8.93385},"15057":{"code":"15057","region":"Piemonte","city":"Tortona","latitude":44.89784,"longitude":8.86374},"15059":{"code":"15059","region":"Piemonte","city":"Volpedo","latitude":44.89026,"longitude":8.98185},"15060":{"code":"15060","region":"Piemonte","city":"Borghetto di Borbera","latitude":44.72945,"longitude":8.94346},"15061":{"code":"15061","region":"Piemonte","city":"Arquata Scrivia","latitude":44.6883,"longitude":8.88682},"15063":{"code":"15063","region":"Piemonte","city":"Cassano Spinola","latitude":44.76557,"longitude":8.86228},"15066":{"code":"15066","region":"Piemonte","city":"Gavi","latitude":44.68765,"longitude":8.80935},"15067":{"code":"15067","region":"Piemonte","city":"Novi Ligure","latitude":44.76085,"longitude":8.78955},"15068":{"code":"15068","region":"Piemonte","city":"Pozzolo Formigaro","latitude":44.79515,"longitude":8.78485},"15069":{"code":"15069","region":"Piemonte","city":"Serravalle Scrivia","latitude":44.72277,"longitude":8.85635},"15070":{"code":"15070","region":"Piemonte","city":"Tagliolo Monferrato","latitude":44.63835,"longitude":8.66585},"15074":{"code":"15074","region":"Piemonte","city":"Molare","latitude":44.61864,"longitude":8.60055},"15076":{"code":"15076","region":"Piemonte","city":"Ovada","latitude":44.63835,"longitude":8.64525},"15077":{"code":"15077","region":"Piemonte","city":"Predosa","latitude":44.75135,"longitude":8.65545},"15100":{"code":"15100","region":"Piemonte","city":"Alessandria","latitude":44.91245,"longitude":8.61894},"16030":{"code":"16030","region":"Liguria","city":"Casarza Ligure","latitude":44.27188,"longitude":9.44704},"16035":{"code":"16035","region":"Liguria","city":"Rapallo","latitude":44.3496,"longitude":9.22796},"16039":{"code":"16039","region":"Liguria","city":"Sestri Levante","latitude":44.27317,"longitude":9.39683},"16046":{"code":"16046","region":"Liguria","city":"Mezzanego","latitude":44.38275,"longitude":9.37667},"16049":{"code":"16049","region":"Liguria","city":"Santo Stefano d'Aveto","latitude":44.54545,"longitude":9.44817},"16122":{"code":"16122","region":"Liguria","city":"Genova","latitude":44.40632,"longitude":8.93386},"16123":{"code":"16123","region":"Liguria","city":"Genova","latitude":44.40632,"longitude":8.93386},"16124":{"code":"16124","region":"Liguria","city":"Genova","latitude":44.40632,"longitude":8.93386},"16128":{"code":"16128","region":"Liguria","city":"Genova","latitude":44.40632,"longitude":8.93386},"16129":{"code":"16129","region":"Liguria","city":"Genova","latitude":44.40632,"longitude":8.93386},"16141":{"code":"16141","region":"Liguria","city":"Genova","latitude":44.40632,"longitude":8.93386},"16142":{"code":"16142","region":"Liguria","city":"Genova","latitude":44.40632,"longitude":8.93386},"16145":{"code":"16145","region":"Lombardia","city":"Milan","latitude":45.46427,"longitude":9.18951},"16147":{"code":"16147","region":"Liguria","city":"Genova","latitude":44.40632,"longitude":8.93386},"16151":{"code":"16151","region":"Liguria","city":"Genova","latitude":44.40632,"longitude":8.93386},"16152":{"code":"16152","region":"Liguria","city":"Genova","latitude":44.40632,"longitude":8.93386},"16153":{"code":"16153","region":"Liguria","city":"Genova","latitude":44.40632,"longitude":8.93386},"16154":{"code":"16154","region":"Liguria","city":"Genova","latitude":44.40632,"longitude":8.93386},"16158":{"code":"16158","region":"Liguria","city":"Genova","latitude":44.40632,"longitude":8.93386},"16159":{"code":"16159","region":"Liguria","city":"Genova","latitude":44.40632,"longitude":8.93386},"16163":{"code":"16163","region":"Liguria","city":"Genova","latitude":44.40632,"longitude":8.93386},"17013":{"code":"17013","region":"Liguria","city":"Cairo Montenotte","latitude":44.40314,"longitude":8.27455},"17014":{"code":"17014","region":"Liguria","city":"Cairo Montenotte","latitude":44.40314,"longitude":8.27455},"17020":{"code":"17020","region":"Liguria","city":"Calice Ligure","latitude":44.20493,"longitude":8.29535},"17021":{"code":"17021","region":"Liguria","city":"Alassio","latitude":44.00393,"longitude":8.16713},"17022":{"code":"17022","region":"Liguria","city":"Borgio Verezzi","latitude":44.15906,"longitude":8.30832},"17023":{"code":"17023","region":"Liguria","city":"Ceriale","latitude":44.09128,"longitude":8.22893},"17024":{"code":"17024","region":"Liguria","city":"Finale Ligure","latitude":44.16952,"longitude":8.3436},"17025":{"code":"17025","region":"Liguria","city":"Loano","latitude":44.12777,"longitude":8.25743},"17027":{"code":"17027","region":"Liguria","city":"Pietra Ligure","latitude":44.1492,"longitude":8.28206},"17031":{"code":"17031","region":"Liguria","city":"Albenga","latitude":44.04997,"longitude":8.21829},"17035":{"code":"17035","region":"Liguria","city":"Cisano sul Neva","latitude":44.08543,"longitude":8.14935},"17037":{"code":"17037","region":"Liguria","city":"Ortovero","latitude":44.05385,"longitude":8.0995},"17038":{"code":"17038","region":"Liguria","city":"Villanova d'Albenga","latitude":44.04725,"longitude":8.14336},"17043":{"code":"17043","region":"Liguria","city":"Carcare","latitude":44.35414,"longitude":8.29205},"17052":{"code":"17052","region":"Liguria","city":"Borghetto Santo Spirito","latitude":44.11187,"longitude":8.24129},"17054":{"code":"17054","region":"Liguria","city":"Boissano","latitude":44.13583,"longitude":8.22155},"17055":{"code":"17055","region":"Liguria","city":"Toirano","latitude":44.12753,"longitude":8.20485},"17056":{"code":"17056","region":"Liguria","city":"Cengio","latitude":44.3894,"longitude":8.2116},"17058":{"code":"17058","region":"Liguria","city":"Dego","latitude":44.44304,"longitude":8.30595},"17100":{"code":"17100","region":"Liguria","city":"Savona","latitude":44.30905,"longitude":8.47715},"18013":{"code":"18013","region":"Liguria","city":"Diano Marina","latitude":43.91032,"longitude":8.07925},"18020":{"code":"18020","region":"Liguria","city":"Dolcedo","latitude":43.90512,"longitude":7.95015},"18026":{"code":"18026","region":"Liguria","city":"Pieve di Teco","latitude":44.04703,"longitude":7.91495},"18038":{"code":"18038","region":"Liguria","city":"San Remo","latitude":43.81725,"longitude":7.7772},"18039":{"code":"18039","region":"Liguria","city":"Ventimiglia","latitude":43.78956,"longitude":7.60872},"18100":{"code":"18100","region":"Liguria","city":"Imperia","latitude":43.8875,"longitude":8.03083},"19013":{"code":"19013","region":"Liguria","city":"Deiva Marina","latitude":44.21931,"longitude":9.52064},"19015":{"code":"19015","region":"Liguria","city":"Levanto","latitude":44.17014,"longitude":9.61228},"19016":{"code":"19016","region":"Liguria","city":"Monterosso al Mare","latitude":44.14666,"longitude":9.65494},"19018":{"code":"19018","region":"Liguria","city":"Vernazza","latitude":44.13501,"longitude":9.68346},"19020":{"code":"19020","region":"Liguria","city":"Borghetto di Vara","latitude":44.22368,"longitude":9.72118},"19021":{"code":"19021","region":"Liguria","city":"Arcola","latitude":44.11854,"longitude":9.91269},"19028":{"code":"19028","region":"Liguria","city":"Varese Ligure","latitude":44.37635,"longitude":9.59418},"19033":{"code":"19033","region":"Liguria","city":"Castelnuovo di Magra","latitude":44.10035,"longitude":10.01639},"19034":{"code":"19034","region":"Liguria","city":"Ortonovo","latitude":44.08487,"longitude":10.04288},"19100":{"code":"19100","region":"Liguria","city":"La Spezia","latitude":44.11054,"longitude":9.84339},"19124":{"code":"19124","region":"Liguria","city":"La Spezia","latitude":44.11054,"longitude":9.84339},"19126":{"code":"19126","region":"Liguria","city":"La Spezia","latitude":44.11054,"longitude":9.84339},"19138":{"code":"19138","region":"Liguria","city":"La Spezia","latitude":44.11054,"longitude":9.84339},"20010":{"code":"20010","region":"Lombardia","city":"Cornaredo","latitude":45.49697,"longitude":9.02614},"20011":{"code":"20011","region":"Lombardia","city":"Corbetta","latitude":45.46723,"longitude":8.91867},"20013":{"code":"20013","region":"Lombardia","city":"Magenta","latitude":45.46457,"longitude":8.88264},"20016":{"code":"20016","region":"Lombardia","city":"Pero","latitude":45.51017,"longitude":9.08704},"20019":{"code":"20019","region":"Lombardia","city":"Settimo Milanese","latitude":45.47771,"longitude":9.05574},"20020":{"code":"20020","region":"Lombardia","city":"Lainate","latitude":45.57176,"longitude":9.02681},"20021":{"code":"20021","region":"Lombardia","city":"Milan","latitude":45.46427,"longitude":9.18951},"20024":{"code":"20024","region":"Lombardia","city":"Garbagnate Milanese","latitude":45.57647,"longitude":9.07174},"20025":{"code":"20025","region":"Lombardia","city":"Legnano","latitude":45.59597,"longitude":8.90784},"20032":{"code":"20032","region":"Lombardia","city":"Cormano","latitude":45.53957,"longitude":9.17094},"20037":{"code":"20037","region":"Lombardia","city":"Paderno Dugnano","latitude":45.56899,"longitude":9.16483},"20060":{"code":"20060","region":"Lombardia","city":"Pozzuolo Martesana","latitude":45.51398,"longitude":9.45625},"20063":{"code":"20063","region":"Lombardia","city":"Cernusco sul Naviglio","latitude":45.52716,"longitude":9.3334},"20064":{"code":"20064","region":"Lombardia","city":"Gorgonzola","latitude":45.53157,"longitude":9.40465},"20066":{"code":"20066","region":"Lombardia","city":"Melzo","latitude":45.50127,"longitude":9.42525},"20067":{"code":"20067","region":"Lombardia","city":"Tribiano","latitude":45.41337,"longitude":9.37895},"20070":{"code":"20070","region":"Lombardia","city":"Cerro al Lambro","latitude":45.32997,"longitude":9.33905},"20080":{"code":"20080","region":"Lombardia","city":"Basiglio","latitude":45.35917,"longitude":9.15855},"20081":{"code":"20081","region":"Lombardia","city":"Abbiategrasso","latitude":45.39821,"longitude":8.91678},"20084":{"code":"20084","region":"Lombardia","city":"Milan","latitude":45.46427,"longitude":9.18951},"20089":{"code":"20089","region":"Lombardia","city":"Rozzano","latitude":45.38187,"longitude":9.16055},"20090":{"code":"20090","region":"Lombardia","city":"Segrate","latitude":45.49624,"longitude":9.29323},"20092":{"code":"20092","region":"Lombardia","city":"Cinisello Balsamo","latitude":45.55707,"longitude":9.22185},"20093":{"code":"20093","region":"Lombardia","city":"Cologno Monzese","latitude":45.53004,"longitude":9.27795},"20094":{"code":"20094","region":"Lombardia","city":"Corsico","latitude":45.43099,"longitude":9.11093},"20095":{"code":"20095","region":"Lombardia","city":"Cusano Milanino","latitude":45.55307,"longitude":9.18344},"20096":{"code":"20096","region":"Lombardia","city":"Pioltello","latitude":45.50502,"longitude":9.33151},"20097":{"code":"20097","region":"Lombardia","city":"Milan","latitude":45.46427,"longitude":9.18951},"20098":{"code":"20098","region":"Lombardia","city":"San Giuliano Milanese","latitude":45.39574,"longitude":9.28757},"20099":{"code":"20099","region":"Lombardia","city":"Sesto San Giovanni","latitude":45.53449,"longitude":9.23401},"20123":{"code":"20123","region":"Lombardia","city":"Milan","latitude":45.46427,"longitude":9.18951},"20124":{"code":"20124","region":"Lombardia","city":"Milan","latitude":45.46427,"longitude":9.18951},"20128":{"code":"20128","region":"Lombardia","city":"Milan","latitude":45.46427,"longitude":9.18951},"20129":{"code":"20129","region":"Lombardia","city":"Milan","latitude":45.46427,"longitude":9.18951},"20131":{"code":"20131","region":"Lombardia","city":"Milan","latitude":45.46427,"longitude":9.18951},"20133":{"code":"20133","region":"Lombardia","city":"Milan","latitude":45.46427,"longitude":9.18951},"20136":{"code":"20136","region":"Lombardia","city":"Milan","latitude":45.46427,"longitude":9.18951},"20137":{"code":"20137","region":"Lombardia","city":"Milan","latitude":45.46427,"longitude":9.18951},"20138":{"code":"20138","region":"Lombardia","city":"Milan","latitude":45.46427,"longitude":9.18951},"20141":{"code":"20141","region":"Lombardia","city":"Milan","latitude":45.46427,"longitude":9.18951},"20143":{"code":"20143","region":"Lombardia","city":"Milan","latitude":45.46427,"longitude":9.18951},"20144":{"code":"20144","region":"Lombardia","city":"Milan","latitude":45.46427,"longitude":9.18951},"20146":{"code":"20146","region":"Lombardia","city":"Milan","latitude":45.46427,"longitude":9.18951},"20147":{"code":"20147","region":"Lombardia","city":"Milan","latitude":45.46427,"longitude":9.18951},"20148":{"code":"20148","region":"Lombardia","city":"Milan","latitude":45.46427,"longitude":9.18951},"20151":{"code":"20151","region":"Lombardia","city":"Milan","latitude":45.46427,"longitude":9.18951},"20153":{"code":"20153","region":"Lombardia","city":"Milan","latitude":45.46427,"longitude":9.18951},"20155":{"code":"20155","region":"Lombardia","city":"Milan","latitude":45.46427,"longitude":9.18951},"20156":{"code":"20156","region":"Lombardia","city":"Milan","latitude":45.46427,"longitude":9.18951},"20157":{"code":"20157","region":"Lombardia","city":"Milan","latitude":45.46427,"longitude":9.18951},"20158":{"code":"20158","region":"Lombardia","city":"Milan","latitude":45.46427,"longitude":9.18951},"20161":{"code":"20161","region":"Lombardia","city":"Milan","latitude":45.46427,"longitude":9.18951},"20162":{"code":"20162","region":"Lombardia","city":"Milan","latitude":45.46427,"longitude":9.18951},"20811":{"code":"20811","region":"Lombardia","city":"Cesano Maderno","latitude":45.63038,"longitude":9.15224},"20812":{"code":"20812","region":"Lombardia","city":"Limbiate","latitude":45.59677,"longitude":9.12904},"20821":{"code":"20821","region":"Lombardia","city":"Seveso","latitude":45.66013,"longitude":9.16028},"20831":{"code":"20831","region":"Lombardia","city":"Seregno","latitude":45.65238,"longitude":9.20034},"20832":{"code":"20832","region":"Lombardia","city":"Desio","latitude":45.62018,"longitude":9.20424},"20833":{"code":"20833","region":"Lombardia","city":"Giussano","latitude":45.69408,"longitude":9.21124},"20834":{"code":"20834","region":"Lombardia","city":"Nova Milanese","latitude":45.59037,"longitude":9.19954},"20835":{"code":"20835","region":"Lombardia","city":"Muggio","latitude":45.58837,"longitude":9.22625},"20851":{"code":"20851","region":"Lombardia","city":"Lissone","latitude":45.61236,"longitude":9.23985},"20854":{"code":"20854","region":"Lombardia","city":"Vedano al Lambro","latitude":45.60878,"longitude":9.26785},"20855":{"code":"20855","region":"Lombardia","city":"Lesmo","latitude":45.64858,"longitude":9.30735},"20861":{"code":"20861","region":"Lombardia","city":"Brugherio","latitude":45.55301,"longitude":9.29907},"20863":{"code":"20863","region":"Piemonte","city":"Torino","latitude":45.07049,"longitude":7.68682},"20864":{"code":"20864","region":"Lombardia","city":"Agrate Brianza","latitude":45.57778,"longitude":9.35145},"20871":{"code":"20871","region":"Lombardia","city":"Vimercate","latitude":45.61188,"longitude":9.36705},"20876":{"code":"20876","region":"Lombardia","city":"Ornago","latitude":45.60068,"longitude":9.42015},"20877":{"code":"20877","region":"Lombardia","city":"Roncello","latitude":45.60238,"longitude":9.45495},"20900":{"code":"20900","region":"Lombardia","city":"Monza","latitude":45.58248,"longitude":9.27485},"21010":{"code":"21010","region":"Lombardia","city":"Cardano al Campo","latitude":45.64887,"longitude":8.76934},"21011":{"code":"21011","region":"Lombardia","city":"Casorate Sempione","latitude":45.67097,"longitude":8.74343},"21012":{"code":"21012","region":"Lombardia","city":"Magnago","latitude":45.5792,"longitude":8.80245},"21013":{"code":"21013","region":"Lombardia","city":"Gallarate","latitude":45.66019,"longitude":8.79164},"21015":{"code":"21015","region":"Lombardia","city":"Lonate Pozzolo","latitude":45.59677,"longitude":8.75474},"21016":{"code":"21016","region":"Lombardia","city":"Luino","latitude":46.00185,"longitude":8.74512},"21017":{"code":"21017","region":"Lombardia","city":"Samarate","latitude":45.62537,"longitude":8.78344},"21019":{"code":"21019","region":"Lombardia","city":"Somma Lombardo","latitude":45.68297,"longitude":8.70873},"21020":{"code":"21020","region":"Lombardia","city":"Daverio","latitude":45.77798,"longitude":8.77343},"21027":{"code":"21027","region":"Lombardia","city":"Ispra","latitude":45.8148,"longitude":8.61294},"21029":{"code":"21029","region":"Lombardia","city":"Ispra","latitude":45.8148,"longitude":8.61294},"21030":{"code":"21030","region":"Lombardia","city":"Mesenzana","latitude":45.95158,"longitude":8.76453},"21032":{"code":"21032","region":"Lombardia","city":"Milan","latitude":45.46427,"longitude":9.18951},"21033":{"code":"21033","region":"Lombardia","city":"Cittiglio","latitude":45.89698,"longitude":8.66013},"21040":{"code":"21040","region":"Lombardia","city":"Caronno Varesino","latitude":45.73577,"longitude":8.83173},"21042":{"code":"21042","region":"Lombardia","city":"Caronno Pertusella","latitude":45.59777,"longitude":9.04634},"21047":{"code":"21047","region":"Lombardia","city":"Saronno","latitude":45.62787,"longitude":9.03464},"21050":{"code":"21050","region":"Lombardia","city":"Marnate","latitude":45.62577,"longitude":8.91014},"21052":{"code":"21052","region":"Lombardia","city":"Busto Arsizio","latitude":45.61128,"longitude":8.84914},"21053":{"code":"21053","region":"Lombardia","city":"Castellanza","latitude":45.61237,"longitude":8.90114},"21057":{"code":"21057","region":"Lombardia","city":"Olgiate Olona","latitude":45.63706,"longitude":8.88147},"21100":{"code":"21100","region":"Lombardia","city":"Varese","latitude":45.82908,"longitude":8.82193},"22010":{"code":"22010","region":"Lombardia","city":"Castello","latitude":46.02832,"longitude":9.05462},"22011":{"code":"22011","region":"Lombardia","city":"Bellagio","latitude":45.98772,"longitude":9.26182},"22013":{"code":"22013","region":"Lombardia","city":"Domaso","latitude":46.15289,"longitude":9.33344},"22017":{"code":"22017","region":"Lombardia","city":"Menaggio","latitude":46.02075,"longitude":9.23907},"22019":{"code":"22019","region":"Lombardia","city":"Tremezzo","latitude":45.98348,"longitude":9.21854},"22020":{"code":"22020","region":"Lombardia","city":"Nesso","latitude":45.91238,"longitude":9.15674},"22025":{"code":"22025","region":"Lombardia","city":"Lezzeno","latitude":45.94518,"longitude":9.18894},"22030":{"code":"22030","region":"Lombardia","city":"Orsenigo","latitude":45.77738,"longitude":9.18174},"22036":{"code":"22036","region":"Lombardia","city":"Erba","latitude":45.80958,"longitude":9.23124},"22046":{"code":"22046","region":"Lombardia","city":"Merone","latitude":45.78718,"longitude":9.24404},"22060":{"code":"22060","region":"Lombardia","city":"Novedrate","latitude":45.69808,"longitude":9.12074},"22063":{"code":"22063","region":"Lombardia","city":"Cantu","latitude":45.72938,"longitude":9.14054},"22070":{"code":"22070","region":"Lombardia","city":"Guanzate","latitude":45.72758,"longitude":9.01984},"22072":{"code":"22072","region":"Lombardia","city":"Cermenate","latitude":45.70288,"longitude":9.08584},"22074":{"code":"22074","region":"Lombardia","city":"Como","latitude":45.80998,"longitude":9.08744},"22075":{"code":"22075","region":"Lombardia","city":"Lurate Caccivio","latitude":45.77068,"longitude":8.99784},"22100":{"code":"22100","region":"Lombardia","city":"Como","latitude":45.80998,"longitude":9.08744},"23010":{"code":"23010","region":"Lombardia","city":"Buglio in Monte","latitude":46.18269,"longitude":9.67484},"23011":{"code":"23011","region":"Lombardia","city":"Ardenno","latitude":46.16429,"longitude":9.64494},"23012":{"code":"23012","region":"Lombardia","city":"Castione Andevenno","latitude":46.17279,"longitude":9.80025},"23013":{"code":"23013","region":"Lombardia","city":"Cosio Valtellino","latitude":46.13509,"longitude":9.55164},"23015":{"code":"23015","region":"Lombardia","city":"Dubino","latitude":46.17179,"longitude":9.43014},"23017":{"code":"23017","region":"Lombardia","city":"Morbegno","latitude":46.13829,"longitude":9.57004},"23020":{"code":"23020","region":"Lombardia","city":"Gordona","latitude":46.29229,"longitude":9.36534},"23022":{"code":"23022","region":"Lombardia","city":"Chiavenna","latitude":46.32159,"longitude":9.39864},"23023":{"code":"23023","region":"Lombardia","city":"Chiesa in Valmalenco","latitude":46.2651,"longitude":9.84865},"23026":{"code":"23026","region":"Lombardia","city":"Ponte in Valtellina","latitude":46.175,"longitude":9.97785},"23029":{"code":"23029","region":"Lombardia","city":"Villa di Chiavenna","latitude":46.3307,"longitude":9.48114},"23030":{"code":"23030","region":"Lombardia","city":"Valfurva","latitude":46.46161,"longitude":10.41736},"23032":{"code":"23032","region":"Lombardia","city":"Bormio","latitude":46.46841,"longitude":10.37206},"23033":{"code":"23033","region":"Lombardia","city":"Grosio","latitude":46.2979,"longitude":10.27426},"23035":{"code":"23035","region":"Lombardia","city":"Sondalo","latitude":46.3301,"longitude":10.32476},"23037":{"code":"23037","region":"Lombardia","city":"Tirano","latitude":46.2154,"longitude":10.16786},"23100":{"code":"23100","region":"Lombardia","city":"Sondrio","latitude":46.169,"longitude":9.86915},"23807":{"code":"23807","region":"Lombardia","city":"Merate","latitude":45.69868,"longitude":9.41165},"23822":{"code":"23822","region":"Lombardia","city":"Bellano","latitude":46.04329,"longitude":9.30614},"23823":{"code":"23823","region":"Lombardia","city":"Colico","latitude":46.13239,"longitude":9.36984},"23824":{"code":"23824","region":"Lombardia","city":"Dervio","latitude":46.07599,"longitude":9.30464},"23826":{"code":"23826","region":"Lombardia","city":"Mandello del Lario","latitude":45.91918,"longitude":9.31934},"23842":{"code":"23842","region":"Lombardia","city":"Bosisio Parini","latitude":45.80228,"longitude":9.29074},"23846":{"code":"23846","region":"Lombardia","city":"Garbagnate Monastero","latitude":45.77338,"longitude":9.30144},"23861":{"code":"23861","region":"Lombardia","city":"Cesana Brianza","latitude":45.81678,"longitude":9.29954},"23865":{"code":"23865","region":"Lombardia","city":"Oliveto Lario","latitude":45.93098,"longitude":9.28384},"23875":{"code":"23875","region":"Lombardia","city":"Osnago","latitude":45.67568,"longitude":9.39115},"23895":{"code":"23895","region":"Lombardia","city":"Nibionno","latitude":45.74648,"longitude":9.26894},"23900":{"code":"23900","region":"Lombardia","city":"Lecco","latitude":45.85317,"longitude":9.39005},"24014":{"code":"24014","region":"Lombardia","city":"Piazza Brembana","latitude":45.94669,"longitude":9.67405},"24020":{"code":"24020","region":"Lombardia","city":"Colere","latitude":45.97429,"longitude":10.08276},"24030":{"code":"24030","region":"Lombardia","city":"Pontida","latitude":45.73238,"longitude":9.49865},"24035":{"code":"24035","region":"Lombardia","city":"Curno","latitude":45.68898,"longitude":9.60705},"24036":{"code":"24036","region":"Lombardia","city":"Ponte San Pietro","latitude":45.69628,"longitude":9.58485},"24040":{"code":"24040","region":"Lombardia","city":"Fornovo San Giovanni","latitude":45.49778,"longitude":9.67856},"24041":{"code":"24041","region":"Lombardia","city":"Brembate","latitude":45.60478,"longitude":9.55655},"24047":{"code":"24047","region":"Lombardia","city":"Treviglio","latitude":45.52378,"longitude":9.58946},"24048":{"code":"24048","region":"Lombardia","city":"Treviolo","latitude":45.67368,"longitude":9.61195},"24050":{"code":"24050","region":"Lombardia","city":"Grassobbio","latitude":45.65688,"longitude":9.72566},"24054":{"code":"24054","region":"Lombardia","city":"Calcio","latitude":45.50948,"longitude":9.85126},"24060":{"code":"24060","region":"Lombardia","city":"Pallazzolo sull'Oglio","latitude":45.60368,"longitude":9.89716},"24065":{"code":"24065","region":"Lombardia","city":"Lovere","latitude":45.81169,"longitude":10.06896},"24121":{"code":"24121","region":"Lombardia","city":"Bergamo","latitude":45.69798,"longitude":9.66895},"24122":{"code":"24122","region":"Lombardia","city":"Bergamo","latitude":45.69798,"longitude":9.66895},"24123":{"code":"24123","region":"Lombardia","city":"Bergamo","latitude":45.69798,"longitude":9.66895},"24124":{"code":"24124","region":"Lombardia","city":"Bergamo","latitude":45.69798,"longitude":9.66895},"24126":{"code":"24126","region":"Lombardia","city":"Bergamo","latitude":45.69798,"longitude":9.66895},"25010":{"code":"25010","region":"Lombardia","city":"Limone sul Garda","latitude":45.8145,"longitude":10.79278},"25014":{"code":"25014","region":"Lombardia","city":"Castenedolo","latitude":45.46948,"longitude":10.29567},"25015":{"code":"25015","region":"Veneto","city":"Garda","latitude":45.57779,"longitude":10.71238},"25017":{"code":"25017","region":"Veneto","city":"Garda","latitude":45.57779,"longitude":10.71238},"25020":{"code":"25020","region":"Lombardia","city":"San Paolo","latitude":45.37058,"longitude":10.02677},"25021":{"code":"25021","region":"Lombardia","city":"Brescia","latitude":45.52478,"longitude":10.22727},"25024":{"code":"25024","region":"Lombardia","city":"Leno","latitude":45.37248,"longitude":10.21657},"25025":{"code":"25025","region":"Lombardia","city":"Manerbio","latitude":45.35578,"longitude":10.13517},"25030":{"code":"25030","region":"Lombardia","city":"Castrezzato","latitude":45.51128,"longitude":9.98086},"25033":{"code":"25033","region":"Lombardia","city":"Cologne","latitude":45.58138,"longitude":9.94136},"25038":{"code":"25038","region":"Lombardia","city":"Rovato","latitude":45.56578,"longitude":10.00006},"25040":{"code":"25040","region":"Lombardia","city":"Saviore dell'Adamello","latitude":46.0805,"longitude":10.39966},"25043":{"code":"25043","region":"Lombardia","city":"Breno","latitude":45.95779,"longitude":10.30476},"25044":{"code":"25044","region":"Lombardia","city":"Capo di Ponte","latitude":46.031,"longitude":10.34586},"25047":{"code":"25047","region":"Lazio","city":"Rome","latitude":41.89474,"longitude":12.4839},"25050":{"code":"25050","region":"Lombardia","city":"Niardo","latitude":45.97599,"longitude":10.33326},"25054":{"code":"25054","region":"Lombardia","city":"Marone","latitude":45.73609,"longitude":10.09376},"25056":{"code":"25056","region":"Lombardia","city":"Ponte di Legno","latitude":46.2586,"longitude":10.50866},"25060":{"code":"25060","region":"Sicilia","city":"Marsala","latitude":37.79664,"longitude":12.43518},"25069":{"code":"25069","region":"Lombardia","city":"Brescia","latitude":45.52478,"longitude":10.22727},"25079":{"code":"25079","region":"Lombardia","city":"Brescia","latitude":45.52478,"longitude":10.22727},"25084":{"code":"25084","region":"Lombardia","city":"Gargnano","latitude":45.68909,"longitude":10.66088},"25085":{"code":"25085","region":"Lombardia","city":"Gavardo","latitude":45.58938,"longitude":10.44257},"25121":{"code":"25121","region":"Lombardia","city":"Brescia","latitude":45.52478,"longitude":10.22727},"25123":{"code":"25123","region":"Lombardia","city":"Brescia","latitude":45.52478,"longitude":10.22727},"25124":{"code":"25124","region":"Lombardia","city":"Brescia","latitude":45.52478,"longitude":10.22727},"25125":{"code":"25125","region":"Lombardia","city":"Brescia","latitude":45.52478,"longitude":10.22727},"25126":{"code":"25126","region":"Lombardia","city":"Brescia","latitude":45.52478,"longitude":10.22727},"25128":{"code":"25128","region":"Lombardia","city":"Brescia","latitude":45.52478,"longitude":10.22727},"25135":{"code":"25135","region":"Lombardia","city":"Brescia","latitude":45.52478,"longitude":10.22727},"25136":{"code":"25136","region":"Lombardia","city":"Brescia","latitude":45.52478,"longitude":10.22727},"26010":{"code":"26010","region":"Lombardia","city":"Coccaglio","latitude":45.56458,"longitude":9.97426},"26013":{"code":"26013","region":"Lombardia","city":"Crema","latitude":45.35877,"longitude":9.66826},"26015":{"code":"26015","region":"Lombardia","city":"Soresina","latitude":45.28647,"longitude":9.85696},"26016":{"code":"26016","region":"Lombardia","city":"Spino d'Adda","latitude":45.39887,"longitude":9.49226},"26023":{"code":"26023","region":"Lombardia","city":"Grumello Cremonese","latitude":45.19307,"longitude":9.86587},"26026":{"code":"26026","region":"Lombardia","city":"Pizzighettone","latitude":45.18907,"longitude":9.78986},"26039":{"code":"26039","region":"Lombardia","city":"Vescovato","latitude":45.17507,"longitude":10.16457},"26041":{"code":"26041","region":"Lombardia","city":"Casalmaggiore","latitude":44.99387,"longitude":10.41888},"26100":{"code":"26100","region":"Lombardia","city":"Cremona","latitude":45.13617,"longitude":10.02797},"26814":{"code":"26814","region":"Lombardia","city":"Livraga","latitude":45.19227,"longitude":9.54646},"26821":{"code":"26821","region":"Lombardia","city":"Bertonico","latitude":45.23307,"longitude":9.66806},"26823":{"code":"26823","region":"Lombardia","city":"Castiglione d'Adda","latitude":45.21887,"longitude":9.69416},"26826":{"code":"26826","region":"Lombardia","city":"Secugnago","latitude":45.23287,"longitude":9.59346},"26841":{"code":"26841","region":"Lombardia","city":"Casalpusterlengo","latitude":45.17687,"longitude":9.64906},"26842":{"code":"26842","region":"Lombardia","city":"Caselle Landi","latitude":45.10257,"longitude":9.79557},"26843":{"code":"26843","region":"Lombardia","city":"Castelnuovo Bocca d'Adda","latitude":45.11087,"longitude":9.86367},"26845":{"code":"26845","region":"Lombardia","city":"Codogno","latitude":45.16187,"longitude":9.70216},"26847":{"code":"26847","region":"Lombardia","city":"Maleo","latitude":45.16747,"longitude":9.76146},"26863":{"code":"26863","region":"Lombardia","city":"Orio Litta","latitude":45.15987,"longitude":9.55456},"26865":{"code":"26865","region":"Lombardia","city":"San Rocco al Porto","latitude":45.08197,"longitude":9.69716},"26866":{"code":"26866","region":"Lombardia","city":"Castiraga Vidardo","latitude":45.25727,"longitude":9.40456},"26867":{"code":"26867","region":"Lombardia","city":"Somaglia","latitude":45.14947,"longitude":9.63346},"26900":{"code":"26900","region":"Lombardia","city":"Lodi","latitude":45.31357,"longitude":9.50286},"27010":{"code":"27010","region":"Lombardia","city":"Siziano","latitude":45.31437,"longitude":9.20315},"27020":{"code":"27020","region":"Lombardia","city":"Gravellona","latitude":45.32766,"longitude":8.76414},"27024":{"code":"27024","region":"Lombardia","city":"Cilavegna","latitude":45.31006,"longitude":8.74474},"27029":{"code":"27029","region":"Lombardia","city":"Vigevano","latitude":45.31166,"longitude":8.86114},"27030":{"code":"27030","region":"Lombardia","city":"Zeme","latitude":45.19726,"longitude":8.66834},"27031":{"code":"27031","region":"Lombardia","city":"Candia Lomellina","latitude":45.17876,"longitude":8.59484},"27032":{"code":"27032","region":"Lombardia","city":"Ferrera Erbognone","latitude":45.11506,"longitude":8.86435},"27035":{"code":"27035","region":"Lombardia","city":"Mede","latitude":45.09786,"longitude":8.73594},"27036":{"code":"27036","region":"Lombardia","city":"Mortara","latitude":45.24726,"longitude":8.73554},"27037":{"code":"27037","region":"Lombardia","city":"Pieve del Cairo","latitude":45.04996,"longitude":8.80415},"27038":{"code":"27038","region":"Lombardia","city":"Robbio","latitude":45.29056,"longitude":8.59114},"27039":{"code":"27039","region":"Lombardia","city":"Sannazzaro de' Burgondi","latitude":45.10226,"longitude":8.90635},"27040":{"code":"27040","region":"Lombardia","city":"Borgo Priolo","latitude":44.96632,"longitude":9.14835},"27045":{"code":"27045","region":"Lombardia","city":"Casteggio","latitude":45.01006,"longitude":9.12235},"27050":{"code":"27050","region":"Lombardia","city":"Solaro","latitude":44.8799,"longitude":9.17315},"27052":{"code":"27052","region":"Lombardia","city":"Rivanazzano","latitude":44.92908,"longitude":9.01368},"27053":{"code":"27053","region":"Lombardia","city":"Lungavilla","latitude":45.04066,"longitude":9.08135},"27057":{"code":"27057","region":"Lombardia","city":"Varzi","latitude":44.82297,"longitude":9.19762},"27058":{"code":"27058","region":"Lombardia","city":"Voghera","latitude":44.99467,"longitude":9.00862},"27059":{"code":"27059","region":"Lombardia","city":"Zavattarello","latitude":44.86746,"longitude":9.26516},"27100":{"code":"27100","region":"Lombardia","city":"Pavia","latitude":45.18446,"longitude":9.16145},"28010":{"code":"28010","region":"Piemonte","city":"Pella","latitude":45.79837,"longitude":8.38492},"28021":{"code":"28021","region":"Piemonte","city":"Borgomanero","latitude":45.70237,"longitude":8.45813},"28028":{"code":"28028","region":"Piemonte","city":"Pettenasco","latitude":45.81657,"longitude":8.40702},"28041":{"code":"28041","region":"Piemonte","city":"Arona","latitude":45.7589,"longitude":8.55715},"28047":{"code":"28047","region":"Piemonte","city":"Oleggio","latitude":45.60147,"longitude":8.64343},"28050":{"code":"28050","region":"Piemonte","city":"Pombia","latitude":45.65297,"longitude":8.63363},"28066":{"code":"28066","region":"Piemonte","city":"Galliate","latitude":45.48157,"longitude":8.69674},"28100":{"code":"28100","region":"Piemonte","city":"Novara","latitude":45.44056,"longitude":8.61684},"28805":{"code":"28805","region":"Piemonte","city":"Vogogna","latitude":46.00898,"longitude":8.29302},"28811":{"code":"28811","region":"Piemonte","city":"Arizzano","latitude":45.95738,"longitude":8.58292},"28814":{"code":"28814","region":"Piemonte","city":"Cambiasca","latitude":45.96238,"longitude":8.54462},"28819":{"code":"28819","region":"Piemonte","city":"Vignone","latitude":45.96118,"longitude":8.56372},"28821":{"code":"28821","region":"Piemonte","city":"Cannero Riviera","latitude":46.022,"longitude":8.67933},"28831":{"code":"28831","region":"Piemonte","city":"Baveno","latitude":45.90838,"longitude":8.49962},"28838":{"code":"28838","region":"Piemonte","city":"Stresa","latitude":45.88348,"longitude":8.53182},"28845":{"code":"28845","region":"Piemonte","city":"Domodossola","latitude":46.1165,"longitude":8.29313},"28854":{"code":"28854","region":"Piemonte","city":"Malesco","latitude":46.12638,"longitude":8.49982},"28855":{"code":"28855","region":"Piemonte","city":"Masera","latitude":46.13998,"longitude":8.32342},"28857":{"code":"28857","region":"Piemonte","city":"Santa Maria Maggiore","latitude":46.13508,"longitude":8.46232},"28862":{"code":"28862","region":"Piemonte","city":"Crodo","latitude":46.21078,"longitude":8.32061},"28865":{"code":"28865","region":"Piemonte","city":"Crevoladossola","latitude":46.14858,"longitude":8.29742},"28868":{"code":"28868","region":"Piemonte","city":"Varzo","latitude":46.20668,"longitude":8.25241},"28877":{"code":"28877","region":"Piemonte","city":"Ornavasso","latitude":45.96798,"longitude":8.41512},"28883":{"code":"28883","region":"Piemonte","city":"Gravellona Toce","latitude":45.92859,"longitude":8.43209},"28886":{"code":"28886","region":"Piemonte","city":"Pieve Vergonte","latitude":46.01298,"longitude":8.26082},"28887":{"code":"28887","region":"Piemonte","city":"Omegna","latitude":45.87977,"longitude":8.40802},"28897":{"code":"28897","region":"Piemonte","city":"Valstrona","latitude":45.90767,"longitude":8.34322},"28922":{"code":"28922","region":"Piemonte","city":"Verbania","latitude":45.92136,"longitude":8.55183},"29010":{"code":"29010","region":"Emilia-Romagna","city":"Rottofreno","latitude":45.05746,"longitude":9.54776},"29011":{"code":"29011","region":"Emilia-Romagna","city":"Borgonovo Val Tidone","latitude":45.01436,"longitude":9.44346},"29012":{"code":"29012","region":"Emilia-Romagna","city":"Caorso","latitude":45.04847,"longitude":9.87107},"29013":{"code":"29013","region":"Emilia-Romagna","city":"Carpaneto Piacentino","latitude":44.91526,"longitude":9.78927},"29014":{"code":"29014","region":"Emilia-Romagna","city":"Castell'Arquato","latitude":44.85236,"longitude":9.87237},"29015":{"code":"29015","region":"Emilia-Romagna","city":"Castel San Giovanni","latitude":45.05826,"longitude":9.43346},"29016":{"code":"29016","region":"Emilia-Romagna","city":"Cortemaggiore","latitude":44.99377,"longitude":9.93077},"29017":{"code":"29017","region":"Emilia-Romagna","city":"Fiorenzuola d'Arda","latitude":44.92206,"longitude":9.90897},"29021":{"code":"29021","region":"Emilia-Romagna","city":"Bettola","latitude":44.77826,"longitude":9.60857},"29024":{"code":"29024","region":"Emilia-Romagna","city":"Ferriere","latitude":44.64385,"longitude":9.49657},"29025":{"code":"29025","region":"Emilia-Romagna","city":"Gropparello","latitude":44.83396,"longitude":9.72767},"29028":{"code":"29028","region":"Emilia-Romagna","city":"Ponte dell'Olio","latitude":44.86736,"longitude":9.64227},"29029":{"code":"29029","region":"Emilia-Romagna","city":"Rivergaro","latitude":44.90956,"longitude":9.59727},"29100":{"code":"29100","region":"Emilia-Romagna","city":"Piacenza","latitude":45.04676,"longitude":9.69937},"30010":{"code":"30010","region":"Veneto","city":"Campolongo Maggiore","latitude":45.32111,"longitude":12.04667},"30016":{"code":"30016","region":"Veneto","city":"Jesolo","latitude":45.53311,"longitude":12.64475},"30020":{"code":"30020","region":"Veneto","city":"Bibione","latitude":45.63583,"longitude":13.05389},"30021":{"code":"30021","region":"Veneto","city":"Caorle","latitude":45.59656,"longitude":12.8758},"30023":{"code":"30023","region":"Veneto","city":"Concordia Sagittaria","latitude":45.75944,"longitude":12.84056},"30025":{"code":"30025","region":"Veneto","city":"Teglio Veneto","latitude":45.81583,"longitude":12.88556},"30026":{"code":"30026","region":"Veneto","city":"Portogruaro","latitude":45.77528,"longitude":12.83861},"30028":{"code":"30028","region":"Veneto","city":"San Michele al Tagliamento","latitude":45.76435,"longitude":12.99494},"30029":{"code":"30029","region":"Veneto","city":"Santo Stino di Livenza","latitude":45.735,"longitude":12.68083},"30030":{"code":"30030","region":"Veneto","city":"Venice","latitude":45.43861,"longitude":12.32667},"30032":{"code":"30032","region":"Veneto","city":"Fiesso d'Artico","latitude":45.42139,"longitude":12.02944},"30034":{"code":"30034","region":"Veneto","city":"Mira","latitude":45.43,"longitude":12.11972},"30121":{"code":"30121","region":"Veneto","city":"Venice","latitude":45.43861,"longitude":12.32667},"30122":{"code":"30122","region":"Veneto","city":"Venice","latitude":45.43861,"longitude":12.32667},"30123":{"code":"30123","region":"Veneto","city":"Venice","latitude":45.43861,"longitude":12.32667},"30135":{"code":"30135","region":"Veneto","city":"Venice","latitude":45.43861,"longitude":12.32667},"30141":{"code":"30141","region":"Veneto","city":"Venice","latitude":45.43861,"longitude":12.32667},"30170":{"code":"30170","region":"Veneto","city":"Venice","latitude":45.43861,"longitude":12.32667},"30171":{"code":"30171","region":"Veneto","city":"Mestre","latitude":45.49028,"longitude":12.2425},"30172":{"code":"30172","region":"Veneto","city":"Venice","latitude":45.43861,"longitude":12.32667},"30173":{"code":"30173","region":"Veneto","city":"Mestre","latitude":45.49028,"longitude":12.2425},"30174":{"code":"30174","region":"Veneto","city":"Mestre","latitude":45.49028,"longitude":12.2425},"30175":{"code":"30175","region":"Veneto","city":"Venice","latitude":45.43861,"longitude":12.32667},"31010":{"code":"31010","region":"Veneto","city":"Farra di Soligo","latitude":45.90528,"longitude":12.12444},"31015":{"code":"31015","region":"Veneto","city":"Conegliano","latitude":45.89056,"longitude":12.2925},"31020":{"code":"31020","region":"Veneto","city":"San Vendemiano","latitude":45.89389,"longitude":12.36556},"31021":{"code":"31021","region":"Veneto","city":"Mogliano Veneto","latitude":45.565,"longitude":12.235},"31029":{"code":"31029","region":"Veneto","city":"Vittorio Veneto","latitude":45.97667,"longitude":12.30333},"31030":{"code":"31030","region":"Veneto","city":"Casier","latitude":45.64389,"longitude":12.29444},"31033":{"code":"31033","region":"Veneto","city":"Riese","latitude":45.729,"longitude":11.919},"31040":{"code":"31040","region":"Veneto","city":"Meduna di Livenza","latitude":45.80667,"longitude":12.61194},"31044":{"code":"31044","region":"Veneto","city":"Treviso","latitude":45.66667,"longitude":12.245},"31045":{"code":"31045","region":"Veneto","city":"Motta di Livenza","latitude":45.77806,"longitude":12.60278},"31047":{"code":"31047","region":"Veneto","city":"Ponte di Piave","latitude":45.71583,"longitude":12.46444},"31048":{"code":"31048","region":"Veneto","city":"San Biagio di Callalta","latitude":45.68361,"longitude":12.37722},"31049":{"code":"31049","region":"Veneto","city":"Valdobbiadene","latitude":45.89931,"longitude":11.9946},"31050":{"code":"31050","region":"Veneto","city":"Treviso","latitude":45.66667,"longitude":12.245},"31051":{"code":"31051","region":"Veneto","city":"Follina","latitude":45.9525,"longitude":12.11389},"31053":{"code":"31053","region":"Veneto","city":"Pieve di Soligo","latitude":45.9025,"longitude":12.17722},"31054":{"code":"31054","region":"Veneto","city":"Possagno","latitude":45.8525,"longitude":11.8731},"31100":{"code":"31100","region":"Veneto","city":"Treviso","latitude":45.66667,"longitude":12.245},"32010":{"code":"32010","region":"Veneto","city":"Castello Lavazzo","latitude":46.28417,"longitude":12.31139},"32012":{"code":"32012","region":"Veneto","city":"Forno di Zoldo","latitude":46.34556,"longitude":12.18639},"32014":{"code":"32014","region":"Veneto","city":"Ponte nell'Alpi","latitude":46.18083,"longitude":12.28333},"32015":{"code":"32015","region":"Veneto","city":"Puos d'Alpago","latitude":46.14278,"longitude":12.36361},"32020":{"code":"32020","region":"Veneto","city":"La Valle","latitude":46.28028,"longitude":12.07222},"32021":{"code":"32021","region":"Veneto","city":"Agordo","latitude":46.28556,"longitude":12.0375},"32022":{"code":"32022","region":"Veneto","city":"Alleghe","latitude":46.41028,"longitude":12.02139},"32026":{"code":"32026","region":"Veneto","city":"Mel","latitude":46.06472,"longitude":12.08222},"32027":{"code":"32027","region":"Veneto","city":"Taibon","latitude":46.29889,"longitude":12.00333},"32028":{"code":"32028","region":"Veneto","city":"Limana","latitude":46.09194,"longitude":12.14333},"32030":{"code":"32030","region":"Veneto","city":"San Gregorio nelle Alpi","latitude":46.10391,"longitude":12.0267},"32031":{"code":"32031","region":"Veneto","city":"Alano di Piave","latitude":45.90681,"longitude":11.9084},"32032":{"code":"32032","region":"Veneto","city":"Feltre","latitude":46.02351,"longitude":11.907},"32034":{"code":"32034","region":"Veneto","city":"Pedavena","latitude":46.03951,"longitude":11.8831},"32035":{"code":"32035","region":"Veneto","city":"Santa Giustina","latitude":46.0875,"longitude":12.04278},"32036":{"code":"32036","region":"Veneto","city":"Sedico","latitude":46.11111,"longitude":12.10028},"32037":{"code":"32037","region":"Veneto","city":"Sospirolo","latitude":46.13944,"longitude":12.06778},"32040":{"code":"32040","region":"Veneto","city":"Domegge di Cadore","latitude":46.46028,"longitude":12.41722},"32041":{"code":"32041","region":"Veneto","city":"Auronzo di Cadore","latitude":46.55556,"longitude":12.43806},"32042":{"code":"32042","region":"Veneto","city":"Calalzo","latitude":46.44,"longitude":12.38333},"32043":{"code":"32043","region":"Veneto","city":"Cortina d'Ampezzo","latitude":46.5369,"longitude":12.13903},"32044":{"code":"32044","region":"Veneto","city":"Pieve di Cadore","latitude":46.43306,"longitude":12.38361},"32045":{"code":"32045","region":"Veneto","city":"Santo Stefano di Cadore","latitude":46.55528,"longitude":12.55278},"32047":{"code":"32047","region":"Veneto","city":"Sappada","latitude":46.56663,"longitude":12.68421},"32100":{"code":"32100","region":"Veneto","city":"Belluno","latitude":46.145,"longitude":12.22139},"33010":{"code":"33010","region":"Friuli-Venezia Giulia","city":"Venzone","latitude":46.33306,"longitude":13.14222},"33013":{"code":"33013","region":"Friuli-Venezia Giulia","city":"Gemona del Friuli","latitude":46.27944,"longitude":13.14306},"33016":{"code":"33016","region":"Friuli-Venezia Giulia","city":"Pontebba","latitude":46.50722,"longitude":13.31139},"33017":{"code":"33017","region":"Friuli-Venezia Giulia","city":"Tarcento","latitude":46.21222,"longitude":13.22583},"33018":{"code":"33018","region":"Friuli-Venezia Giulia","city":"Tarvisio","latitude":46.51083,"longitude":13.59417},"33020":{"code":"33020","region":"Friuli-Venezia Giulia","city":"Socchieve","latitude":46.39639,"longitude":12.84278},"33021":{"code":"33021","region":"Friuli-Venezia Giulia","city":"Ampezzo","latitude":46.41389,"longitude":12.79472},"33022":{"code":"33022","region":"Friuli-Venezia Giulia","city":"Arta Terme","latitude":46.47694,"longitude":13.03083},"33026":{"code":"33026","region":"Friuli-Venezia Giulia","city":"Paluzza","latitude":46.52667,"longitude":13.01833},"33028":{"code":"33028","region":"Friuli-Venezia Giulia","city":"Tolmezzo","latitude":46.4075,"longitude":13.0175},"33029":{"code":"33029","region":"Friuli-Venezia Giulia","city":"Villa Santina","latitude":46.4175,"longitude":12.92222},"33030":{"code":"33030","region":"Friuli-Venezia Giulia","city":"Coseano","latitude":46.09639,"longitude":13.01917},"33032":{"code":"33032","region":"Friuli-Venezia Giulia","city":"Bertiolo","latitude":45.94361,"longitude":13.05083},"33033":{"code":"33033","region":"Friuli-Venezia Giulia","city":"Codroipo","latitude":45.96,"longitude":12.97917},"33034":{"code":"33034","region":"Friuli-Venezia Giulia","city":"Fagagna","latitude":46.11417,"longitude":13.09389},"33037":{"code":"33037","region":"Toscana","city":"Prato","latitude":43.88425,"longitude":11.09092},"33038":{"code":"33038","region":"Friuli-Venezia Giulia","city":"San Daniele del Friuli","latitude":46.16139,"longitude":13.01417},"33039":{"code":"33039","region":"Friuli-Venezia Giulia","city":"Sedegliano","latitude":46.01389,"longitude":12.97472},"33040":{"code":"33040","region":"Friuli-Venezia Giulia","city":"San Leonardo","latitude":46.12028,"longitude":13.53556},"33041":{"code":"33041","region":"Friuli-Venezia Giulia","city":"Aiello del Friuli","latitude":45.87167,"longitude":13.36556},"33043":{"code":"33043","region":"Friuli-Venezia Giulia","city":"Cividale del Friuli","latitude":46.09306,"longitude":13.4275},"33044":{"code":"33044","region":"Friuli-Venezia Giulia","city":"Manzano","latitude":45.99167,"longitude":13.38389},"33046":{"code":"33046","region":"Friuli-Venezia Giulia","city":"Pulfero","latitude":46.175,"longitude":13.48472},"33050":{"code":"33050","region":"Friuli-Venezia Giulia","city":"Rivignano","latitude":45.8775,"longitude":13.04056},"33051":{"code":"33051","region":"Friuli-Venezia Giulia","city":"Aquileia","latitude":45.77028,"longitude":13.36833},"33052":{"code":"33052","region":"Friuli-Venezia Giulia","city":"Cervignano del Friuli","latitude":45.82111,"longitude":13.33806},"33053":{"code":"33053","region":"Friuli-Venezia Giulia","city":"Latisana","latitude":45.77917,"longitude":13},"33054":{"code":"33054","region":"Friuli-Venezia Giulia","city":"Lignano Sabbiadoro","latitude":45.69222,"longitude":13.14806},"33055":{"code":"33055","region":"Friuli-Venezia Giulia","city":"Muzzana del Turgnano","latitude":45.81833,"longitude":13.12639},"33056":{"code":"33056","region":"Friuli-Venezia Giulia","city":"Palazzolo dello Stella","latitude":45.80639,"longitude":13.08111},"33057":{"code":"33057","region":"Friuli-Venezia Giulia","city":"Palmanova","latitude":45.90639,"longitude":13.31194},"33058":{"code":"33058","region":"Friuli-Venezia Giulia","city":"San Giorgio di Nogaro","latitude":45.83361,"longitude":13.21583},"33070":{"code":"33070","region":"Friuli-Venezia Giulia","city":"Polcenigo","latitude":46.03083,"longitude":12.49583},"33072":{"code":"33072","region":"Friuli-Venezia Giulia","city":"Casarsa della Delizia","latitude":45.94806,"longitude":12.8375},"33074":{"code":"33074","region":"Friuli-Venezia Giulia","city":"Fontanafredda","latitude":45.97556,"longitude":12.56833},"33075":{"code":"33075","region":"Friuli-Venezia Giulia","city":"Cordovado","latitude":45.84694,"longitude":12.88028},"33077":{"code":"33077","region":"Friuli-Venezia Giulia","city":"Sacile","latitude":45.95412,"longitude":12.50274},"33078":{"code":"33078","region":"Friuli-Venezia Giulia","city":"San Vito al Tagliamento","latitude":45.91444,"longitude":12.85},"33080":{"code":"33080","region":"Friuli-Venezia Giulia","city":"Claut","latitude":46.27,"longitude":12.51417},"33081":{"code":"33081","region":"Friuli-Venezia Giulia","city":"Aviano","latitude":46.07056,"longitude":12.59472},"33085":{"code":"33085","region":"Friuli-Venezia Giulia","city":"Maniago","latitude":46.17056,"longitude":12.70778},"33090":{"code":"33090","region":"Friuli-Venezia Giulia","city":"Sequals","latitude":46.16472,"longitude":12.82972},"33092":{"code":"33092","region":"Friuli-Venezia Giulia","city":"Fanna","latitude":46.18861,"longitude":12.74861},"33095":{"code":"33095","region":"Friuli-Venezia Giulia","city":"San Giorgio della Richinvelda","latitude":46.04833,"longitude":12.87139},"33097":{"code":"33097","region":"Friuli-Venezia Giulia","city":"Spilimbergo","latitude":46.1125,"longitude":12.89694},"33098":{"code":"33098","region":"Friuli-Venezia Giulia","city":"Valvasone","latitude":45.99444,"longitude":12.87028},"33099":{"code":"33099","region":"Friuli-Venezia Giulia","city":"Vivaro","latitude":46.07472,"longitude":12.77444},"33100":{"code":"33100","region":"Friuli-Venezia Giulia","city":"Udine","latitude":46.06194,"longitude":13.24222},"33170":{"code":"33170","region":"Friuli-Venezia Giulia","city":"Pordenone","latitude":45.96389,"longitude":12.6575},"34010":{"code":"34010","region":"Friuli-Venezia Giulia","city":"Sgonico","latitude":45.73639,"longitude":13.74861},"34011":{"code":"34011","region":"Friuli-Venezia Giulia","city":"Duino","latitude":45.77342,"longitude":13.60436},"34012":{"code":"34012","region":"Friuli-Venezia Giulia","city":"Trieste","latitude":45.64861,"longitude":13.78},"34014":{"code":"34014","region":"Friuli-Venezia Giulia","city":"Trieste","latitude":45.64861,"longitude":13.78},"34018":{"code":"34018","region":"Friuli-Venezia Giulia","city":"Trieste","latitude":45.64861,"longitude":13.78},"34070":{"code":"34070","region":"Friuli-Venezia Giulia","city":"Mariano del Friuli","latitude":45.91528,"longitude":13.46056},"34071":{"code":"34071","region":"Friuli-Venezia Giulia","city":"Cormons","latitude":45.96056,"longitude":13.47222},"34072":{"code":"34072","region":"Friuli-Venezia Giulia","city":"Gradisca d'Isonzo","latitude":45.8925,"longitude":13.50167},"34073":{"code":"34073","region":"Friuli-Venezia Giulia","city":"Grado","latitude":45.67861,"longitude":13.38694},"34074":{"code":"34074","region":"Friuli-Venezia Giulia","city":"Monfalcone","latitude":45.80722,"longitude":13.53417},"34077":{"code":"34077","region":"Friuli-Venezia Giulia","city":"Ronchi dei Legionari","latitude":45.82361,"longitude":13.50972},"34078":{"code":"34078","region":"Friuli-Venezia Giulia","city":"Fogliano Redipuglia","latitude":45.86556,"longitude":13.48222},"34079":{"code":"34079","region":"Friuli-Venezia Giulia","city":"Staranzano","latitude":45.80722,"longitude":13.50333},"34121":{"code":"34121","region":"Friuli-Venezia Giulia","city":"Trieste","latitude":45.64861,"longitude":13.78},"34123":{"code":"34123","region":"Friuli-Venezia Giulia","city":"Trieste","latitude":45.64861,"longitude":13.78},"34127":{"code":"34127","region":"Friuli-Venezia Giulia","city":"Trieste","latitude":45.64861,"longitude":13.78},"34132":{"code":"34132","region":"Friuli-Venezia Giulia","city":"Trieste","latitude":45.64861,"longitude":13.78},"34133":{"code":"34133","region":"Friuli-Venezia Giulia","city":"Trieste","latitude":45.64861,"longitude":13.78},"34147":{"code":"34147","region":"Friuli-Venezia Giulia","city":"Trieste","latitude":45.64861,"longitude":13.78},"34149":{"code":"34149","region":"Friuli-Venezia Giulia","city":"Trieste","latitude":45.64861,"longitude":13.78},"34170":{"code":"34170","region":"Friuli-Venezia Giulia","city":"Gorizia","latitude":45.94088,"longitude":13.62167},"35010":{"code":"35010","region":"Veneto","city":"Limena","latitude":45.4723,"longitude":11.84371},"35011":{"code":"35011","region":"Veneto","city":"Campodarsego","latitude":45.5061,"longitude":11.92091},"35012":{"code":"35012","region":"Veneto","city":"Camposampiero","latitude":45.5684,"longitude":11.93541},"35013":{"code":"35013","region":"Veneto","city":"Cittadella","latitude":45.65,"longitude":11.7842},"35015":{"code":"35015","region":"Veneto","city":"Galliera Veneta","latitude":45.6635,"longitude":11.8309},"35020":{"code":"35020","region":"Veneto","city":"Due Carrare","latitude":45.29259,"longitude":11.81841},"35026":{"code":"35026","region":"Lazio","city":"Nettuno","latitude":41.45907,"longitude":12.66037},"35027":{"code":"35027","region":"Veneto","city":"Noventa Padovana","latitude":45.41429,"longitude":11.95101},"35030":{"code":"35030","region":"Veneto","city":"Rubano","latitude":45.42089,"longitude":11.80721},"35031":{"code":"35031","region":"Veneto","city":"Abano Terme","latitude":45.36099,"longitude":11.79141},"35035":{"code":"35035","region":"Veneto","city":"Mestrino","latitude":45.44089,"longitude":11.7605},"35036":{"code":"35036","region":"Veneto","city":"Montegrotto Terme","latitude":45.33149,"longitude":11.79121},"35040":{"code":"35040","region":"Veneto","city":"Casale di Scodosia","latitude":45.18598,"longitude":11.4683},"35043":{"code":"35043","region":"Veneto","city":"Monselice","latitude":45.24239,"longitude":11.74901},"35100":{"code":"35100","region":"Veneto","city":"Padova","latitude":45.41519,"longitude":11.88181},"35121":{"code":"35121","region":"Veneto","city":"Padova","latitude":45.41519,"longitude":11.88181},"35125":{"code":"35125","region":"Veneto","city":"Padova","latitude":45.41519,"longitude":11.88181},"35127":{"code":"35127","region":"Veneto","city":"Padova","latitude":45.41519,"longitude":11.88181},"35135":{"code":"35135","region":"Veneto","city":"Padova","latitude":45.41519,"longitude":11.88181},"35137":{"code":"35137","region":"Veneto","city":"Padova","latitude":45.41519,"longitude":11.88181},"35138":{"code":"35138","region":"Veneto","city":"Padova","latitude":45.41519,"longitude":11.88181},"35142":{"code":"35142","region":"Veneto","city":"Padova","latitude":45.41519,"longitude":11.88181},"35143":{"code":"35143","region":"Veneto","city":"Padova","latitude":45.41519,"longitude":11.88181},"36010":{"code":"36010","region":"Veneto","city":"Roana","latitude":45.8824,"longitude":11.46239},"36015":{"code":"36015","region":"Veneto","city":"Schio","latitude":45.7124,"longitude":11.35739},"36027":{"code":"36027","region":"Veneto","city":"Rosa","latitude":45.7196,"longitude":11.7634},"36033":{"code":"36033","region":"Veneto","city":"Isola Vicentina","latitude":45.6309,"longitude":11.4467},"36040":{"code":"36040","region":"Veneto","city":"Torri di Quartesolo","latitude":45.52499,"longitude":11.6123},"36042":{"code":"36042","region":"Veneto","city":"Breganze","latitude":45.7057,"longitude":11.5668},"36043":{"code":"36043","region":"Veneto","city":"Camisano Vicentino","latitude":45.5222,"longitude":11.7077},"36050":{"code":"36050","region":"Veneto","city":"Quinto Vicentino","latitude":45.5741,"longitude":11.633},"36060":{"code":"36060","region":"Veneto","city":"Mussolente","latitude":45.7792,"longitude":11.8062},"36061":{"code":"36061","region":"Veneto","city":"Bassano del Grappa","latitude":45.7676,"longitude":11.7357},"36065":{"code":"36065","region":"Veneto","city":"Mussolente","latitude":45.7792,"longitude":11.8062},"36066":{"code":"36066","region":"Veneto","city":"Sandrigo","latitude":45.6561,"longitude":11.592},"36071":{"code":"36071","region":"Veneto","city":"Arzignano","latitude":45.51929,"longitude":11.33859},"36073":{"code":"36073","region":"Veneto","city":"Cornedo Vicentino","latitude":45.61309,"longitude":11.34059},"36075":{"code":"36075","region":"Veneto","city":"Montecchio Maggiore","latitude":45.50369,"longitude":11.412},"36077":{"code":"36077","region":"Veneto","city":"Vicenza","latitude":45.55729,"longitude":11.5409},"36100":{"code":"36100","region":"Veneto","city":"Vicenza","latitude":45.55729,"longitude":11.5409},"37010":{"code":"37010","region":"Veneto","city":"Affi","latitude":45.55439,"longitude":10.77738},"37012":{"code":"37012","region":"Veneto","city":"Bussolengo","latitude":45.46919,"longitude":10.85058},"37016":{"code":"37016","region":"Veneto","city":"Verona","latitude":45.43419,"longitude":10.99779},"37017":{"code":"37017","region":"Trentino-Alto Adige","city":"Trento","latitude":46.06787,"longitude":11.12108},"37030":{"code":"37030","region":"Veneto","city":"Colognola ai Colli","latitude":45.43369,"longitude":11.18429},"37036":{"code":"37036","region":"Veneto","city":"San Martino Buon Albergo","latitude":45.42169,"longitude":11.09689},"37045":{"code":"37045","region":"Veneto","city":"Legnago","latitude":45.18318,"longitude":11.3091},"37047":{"code":"37047","region":"Veneto","city":"San Bonifacio","latitude":45.39689,"longitude":11.2844},"37049":{"code":"37049","region":"Veneto","city":"Villa Bartolomea","latitude":45.15198,"longitude":11.3537},"37057":{"code":"37057","region":"Veneto","city":"San Giovanni Lupatoto","latitude":45.38789,"longitude":11.03799},"37059":{"code":"37059","region":"Veneto","city":"Zevio","latitude":45.37209,"longitude":11.12929},"37060":{"code":"37060","region":"Veneto","city":"Sona","latitude":45.43878,"longitude":10.82548},"37068":{"code":"37068","region":"Veneto","city":"Vigasio","latitude":45.31568,"longitude":10.94009},"37069":{"code":"37069","region":"Veneto","city":"Verona","latitude":45.43419,"longitude":10.99779},"37121":{"code":"37121","region":"Veneto","city":"Vicenza","latitude":45.55729,"longitude":11.5409},"37122":{"code":"37122","region":"Veneto","city":"Verona","latitude":45.43419,"longitude":10.99779},"37123":{"code":"37123","region":"Veneto","city":"Verona","latitude":45.43419,"longitude":10.99779},"37126":{"code":"37126","region":"Veneto","city":"Verona","latitude":45.43419,"longitude":10.99779},"37129":{"code":"37129","region":"Veneto","city":"Verona","latitude":45.43419,"longitude":10.99779},"37131":{"code":"37131","region":"Veneto","city":"Verona","latitude":45.43419,"longitude":10.99779},"37133":{"code":"37133","region":"Veneto","city":"Verona","latitude":45.43419,"longitude":10.99779},"37136":{"code":"37136","region":"Veneto","city":"Verona","latitude":45.43419,"longitude":10.99779},"37137":{"code":"37137","region":"Veneto","city":"Verona","latitude":45.43419,"longitude":10.99779},"37138":{"code":"37138","region":"Veneto","city":"Verona","latitude":45.43419,"longitude":10.99779},"37142":{"code":"37142","region":"Veneto","city":"Verona","latitude":45.43419,"longitude":10.99779},"38010":{"code":"38010","region":"Trentino-Alto Adige","city":"Campodenno","latitude":46.25791,"longitude":11.03317},"38013":{"code":"38013","region":"Trentino-Alto Adige","city":"Fondo","latitude":46.43821,"longitude":11.13747},"38016":{"code":"38016","region":"Trentino-Alto Adige","city":"Mezzocorona","latitude":46.21341,"longitude":11.11868},"38017":{"code":"38017","region":"Trentino-Alto Adige","city":"Mezzolombardo","latitude":46.20901,"longitude":11.09678},"38018":{"code":"38018","region":"Trentino-Alto Adige","city":"Molveno","latitude":46.1421,"longitude":10.96377},"38019":{"code":"38019","region":"Trentino-Alto Adige","city":"Tuenno","latitude":46.32844,"longitude":11.02306},"38020":{"code":"38020","region":"Trentino-Alto Adige","city":"Bagni di Rabbi","latitude":46.40031,"longitude":10.84567},"38023":{"code":"38023","region":"Trentino-Alto Adige","city":"Cles","latitude":46.36667,"longitude":11.03333},"38024":{"code":"38024","region":"Trentino-Alto Adige","city":"Peio","latitude":46.36291,"longitude":10.67296},"38025":{"code":"38025","region":"Trentino-Alto Adige","city":"Dimaro","latitude":46.32621,"longitude":10.87077},"38027":{"code":"38027","region":"Trentino-Alto Adige","city":"Male","latitude":46.35161,"longitude":10.91287},"38029":{"code":"38029","region":"Trentino-Alto Adige","city":"Vermiglio","latitude":46.2969,"longitude":10.69136},"38030":{"code":"38030","region":"Trentino-Alto Adige","city":"Ziano di Fiemme","latitude":46.28651,"longitude":11.56598},"38033":{"code":"38033","region":"Trentino-Alto Adige","city":"Cavalese","latitude":46.29151,"longitude":11.45938},"38035":{"code":"38035","region":"Trentino-Alto Adige","city":"Moena","latitude":46.37732,"longitude":11.66109},"38036":{"code":"38036","region":"Trentino-Alto Adige","city":"Pozza","latitude":46.42892,"longitude":11.69079},"38037":{"code":"38037","region":"Trentino-Alto Adige","city":"Predazzo","latitude":46.30881,"longitude":11.59969},"38038":{"code":"38038","region":"Trentino-Alto Adige","city":"Tesero","latitude":46.29041,"longitude":11.51198},"38043":{"code":"38043","region":"Trentino-Alto Adige","city":"Bedollo","latitude":46.16551,"longitude":11.29988},"38046":{"code":"38046","region":"Trentino-Alto Adige","city":"Chiesa","latitude":45.9368,"longitude":11.27478},"38047":{"code":"38047","region":"Trentino-Alto Adige","city":"Segonzano","latitude":46.19021,"longitude":11.25988},"38050":{"code":"38050","region":"Trentino-Alto Adige","city":"Canal San Bovo","latitude":46.15571,"longitude":11.73249},"38051":{"code":"38051","region":"Trentino-Alto Adige","city":"Borgo","latitude":46.05141,"longitude":11.45439},"38053":{"code":"38053","region":"Trentino-Alto Adige","city":"Castello Tesino","latitude":46.06351,"longitude":11.63239},"38054":{"code":"38054","region":"Trentino-Alto Adige","city":"Transacqua","latitude":46.17171,"longitude":11.83069},"38055":{"code":"38055","region":"Trentino-Alto Adige","city":"Grigno","latitude":46.01601,"longitude":11.63689},"38056":{"code":"38056","region":"Trentino-Alto Adige","city":"Levico Terme","latitude":46.0129,"longitude":11.30718},"38059":{"code":"38059","region":"Trentino-Alto Adige","city":"Strigno","latitude":46.06741,"longitude":11.52009},"38060":{"code":"38060","region":"Trentino-Alto Adige","city":"Pomarolo","latitude":45.9281,"longitude":11.04308},"38061":{"code":"38061","region":"Trentino-Alto Adige","city":"Ala","latitude":45.759,"longitude":11.00018},"38062":{"code":"38062","region":"Trentino-Alto Adige","city":"Arco","latitude":45.91772,"longitude":10.88672},"38063":{"code":"38063","region":"Trentino-Alto Adige","city":"Avio","latitude":45.73379,"longitude":10.93718},"38064":{"code":"38064","region":"Trentino-Alto Adige","city":"Folgaria","latitude":45.9152,"longitude":11.17068},"38068":{"code":"38068","region":"Trentino-Alto Adige","city":"Rovereto","latitude":45.8896,"longitude":11.03868},"38073":{"code":"38073","region":"Trentino-Alto Adige","city":"Vigo di Fassa","latitude":46.41862,"longitude":11.67338},"38079":{"code":"38079","region":"Trentino-Alto Adige","city":"Tione di Trento","latitude":46.036,"longitude":10.72637},"38083":{"code":"38083","region":"Trentino-Alto Adige","city":"Condino","latitude":45.88969,"longitude":10.60027},"38085":{"code":"38085","region":"Trentino-Alto Adige","city":"Pieve di Bono","latitude":45.9422,"longitude":10.64027},"38086":{"code":"38086","region":"Trentino-Alto Adige","city":"Pinzolo","latitude":46.158,"longitude":10.76307},"38089":{"code":"38089","region":"Trentino-Alto Adige","city":"Storo","latitude":45.84925,"longitude":10.58022},"38100":{"code":"38100","region":"Trentino-Alto Adige","city":"Trento","latitude":46.06787,"longitude":11.12108},"39010":{"code":"39010","region":"Trentino-Alto Adige","city":"Cermes","latitude":46.63462,"longitude":11.14657},"39011":{"code":"39011","region":"Trentino-Alto Adige","city":"Lana","latitude":46.61242,"longitude":11.15587},"39012":{"code":"39012","region":"Trentino-Alto Adige","city":"Merano","latitude":46.66817,"longitude":11.15953},"39015":{"code":"39015","region":"Trentino-Alto Adige","city":"Racines","latitude":46.86667,"longitude":11.3},"39017":{"code":"39017","region":"Trentino-Alto Adige","city":"Scena - Schenna","latitude":46.69012,"longitude":11.18627},"39019":{"code":"39019","region":"Trentino-Alto Adige","city":"Tirolo - Tirol","latitude":46.69102,"longitude":11.15427},"39020":{"code":"39020","region":"Trentino-Alto Adige","city":"Sluderno","latitude":46.66451,"longitude":10.58496},"39021":{"code":"39021","region":"Trentino-Alto Adige","city":"Laces","latitude":46.61692,"longitude":10.85636},"39022":{"code":"39022","region":"Trentino-Alto Adige","city":"Lagundo","latitude":46.68113,"longitude":11.12572},"39023":{"code":"39023","region":"Trentino-Alto Adige","city":"Lasa","latitude":46.61661,"longitude":10.70016},"39024":{"code":"39024","region":"Trentino-Alto Adige","city":"Malles Venosta","latitude":46.68791,"longitude":10.54655},"39025":{"code":"39025","region":"Trentino-Alto Adige","city":"Naturno","latitude":46.64872,"longitude":11.00507},"39026":{"code":"39026","region":"Trentino-Alto Adige","city":"Prato allo Stelvio","latitude":46.61901,"longitude":10.59136},"39027":{"code":"39027","region":"Trentino-Alto Adige","city":"Curon Venosta","latitude":46.80832,"longitude":10.54265},"39028":{"code":"39028","region":"Trentino-Alto Adige","city":"Silandro","latitude":46.62842,"longitude":10.77116},"39029":{"code":"39029","region":"Trentino-Alto Adige","city":"Stelvio","latitude":46.59801,"longitude":10.54526},"39030":{"code":"39030","region":"Trentino-Alto Adige","city":"Terento","latitude":46.83053,"longitude":11.77998},"39031":{"code":"39031","region":"Trentino-Alto Adige","city":"Brunico","latitude":46.79583,"longitude":11.93638},"39032":{"code":"39032","region":"Trentino-Alto Adige","city":"Campo Tures","latitude":46.92033,"longitude":11.95448},"39033":{"code":"39033","region":"Trentino-Alto Adige","city":"Corvara in Badia","latitude":46.55162,"longitude":11.87019},"39035":{"code":"39035","region":"Trentino-Alto Adige","city":"Monguelfo","latitude":46.75861,"longitude":12.11083},"39036":{"code":"39036","region":"Trentino-Alto Adige","city":"Badia","latitude":46.61012,"longitude":11.89349},"39039":{"code":"39039","region":"Trentino-Alto Adige","city":"Villabassa","latitude":46.74028,"longitude":12.17028},"39040":{"code":"39040","region":"Trentino-Alto Adige","city":"Campo di Trens","latitude":46.87463,"longitude":11.48667},"39042":{"code":"39042","region":"Trentino-Alto Adige","city":"Bressanone","latitude":46.71503,"longitude":11.65598},"39044":{"code":"39044","region":"Trentino-Alto Adige","city":"Egna","latitude":46.31691,"longitude":11.27258},"39046":{"code":"39046","region":"Trentino-Alto Adige","city":"Ortisei","latitude":46.57432,"longitude":11.66748},"39049":{"code":"39049","region":"Trentino-Alto Adige","city":"Brennero","latitude":47,"longitude":11.5},"39050":{"code":"39050","region":"Trentino-Alto Adige","city":"Fie","latitude":46.51672,"longitude":11.50128},"39055":{"code":"39055","region":"Trentino-Alto Adige","city":"Bolzano","latitude":46.49272,"longitude":11.33358},"39056":{"code":"39056","region":"Trentino-Alto Adige","city":"Nova Levante","latitude":46.43002,"longitude":11.53778},"39058":{"code":"39058","region":"Trentino-Alto Adige","city":"Sarentino","latitude":46.64352,"longitude":11.35577},"39100":{"code":"39100","region":"Trentino-Alto Adige","city":"Bolzano","latitude":46.49272,"longitude":11.33358},"40011":{"code":"40011","region":"Emilia-Romagna","city":"Anzola dell'Emilia","latitude":44.54637,"longitude":11.19461},"40012":{"code":"40012","region":"Emilia-Romagna","city":"Calderara di Reno","latitude":44.56307,"longitude":11.27111},"40016":{"code":"40016","region":"Emilia-Romagna","city":"San Giorgio di Piano","latitude":44.64967,"longitude":11.37561},"40024":{"code":"40024","region":"Emilia-Romagna","city":"Castel San Pietro Terme","latitude":44.39857,"longitude":11.58482},"40026":{"code":"40026","region":"Emilia-Romagna","city":"Imola","latitude":44.35227,"longitude":11.71582},"40030":{"code":"40030","region":"Emilia-Romagna","city":"Castel di Casio","latitude":44.16296,"longitude":11.03581},"40032":{"code":"40032","region":"Emilia-Romagna","city":"Camugnano","latitude":44.17046,"longitude":11.08881},"40033":{"code":"40033","region":"Emilia-Romagna","city":"Casalecchio di Reno","latitude":44.47557,"longitude":11.27591},"40046":{"code":"40046","region":"Emilia-Romagna","city":"Porretta Terme","latitude":44.15916,"longitude":10.97231},"40050":{"code":"40050","region":"Emilia-Romagna","city":"Argelato","latitude":44.64157,"longitude":11.34781},"40054":{"code":"40054","region":"Emilia-Romagna","city":"Budrio","latitude":44.53707,"longitude":11.53362},"40055":{"code":"40055","region":"Emilia-Romagna","city":"Castenaso","latitude":44.50887,"longitude":11.46982},"40056":{"code":"40056","region":"Emilia-Romagna","city":"Crespellano","latitude":44.51046,"longitude":11.13051},"40062":{"code":"40062","region":"Emilia-Romagna","city":"Molinella","latitude":44.62127,"longitude":11.66862},"40064":{"code":"40064","region":"Emilia-Romagna","city":"Ozzano dell'Emilia","latitude":44.44427,"longitude":11.47552},"40065":{"code":"40065","region":"Emilia-Romagna","city":"Pianoro","latitude":44.39296,"longitude":11.34231},"40068":{"code":"40068","region":"Emilia-Romagna","city":"San Lazzaro di Savena","latitude":44.46777,"longitude":11.41401},"40069":{"code":"40069","region":"Emilia-Romagna","city":"Zola Predosa","latitude":44.48966,"longitude":11.21831},"40122":{"code":"40122","region":"Emilia-Romagna","city":"Bologna","latitude":44.49381,"longitude":11.33875},"40123":{"code":"40123","region":"Emilia-Romagna","city":"Bologna","latitude":44.49381,"longitude":11.33875},"40124":{"code":"40124","region":"Emilia-Romagna","city":"Bologna","latitude":44.49381,"longitude":11.33875},"40125":{"code":"40125","region":"Emilia-Romagna","city":"Bologna","latitude":44.49381,"longitude":11.33875},"40127":{"code":"40127","region":"Emilia-Romagna","city":"Bologna","latitude":44.49381,"longitude":11.33875},"40128":{"code":"40128","region":"Emilia-Romagna","city":"Bologna","latitude":44.49381,"longitude":11.33875},"40131":{"code":"40131","region":"Emilia-Romagna","city":"Bologna","latitude":44.49381,"longitude":11.33875},"40134":{"code":"40134","region":"Emilia-Romagna","city":"Bologna","latitude":44.49381,"longitude":11.33875},"40136":{"code":"40136","region":"Emilia-Romagna","city":"Bologna","latitude":44.49381,"longitude":11.33875},"40137":{"code":"40137","region":"Emilia-Romagna","city":"Bologna","latitude":44.49381,"longitude":11.33875},"40138":{"code":"40138","region":"Emilia-Romagna","city":"Bologna","latitude":44.49381,"longitude":11.33875},"40139":{"code":"40139","region":"Emilia-Romagna","city":"Bologna","latitude":44.49381,"longitude":11.33875},"40141":{"code":"40141","region":"Emilia-Romagna","city":"Bologna","latitude":44.49381,"longitude":11.33875},"41011":{"code":"41011","region":"Emilia-Romagna","city":"Campogalliano","latitude":44.69157,"longitude":10.842},"41012":{"code":"41012","region":"Emilia-Romagna","city":"San Prospero","latitude":44.78967,"longitude":11.0221},"41016":{"code":"41016","region":"Emilia-Romagna","city":"Modena","latitude":44.64783,"longitude":10.92539},"41021":{"code":"41021","region":"Emilia-Romagna","city":"Fanano","latitude":44.21146,"longitude":10.7964},"41022":{"code":"41022","region":"Emilia-Romagna","city":"Fiumalbo","latitude":44.17925,"longitude":10.6472},"41026":{"code":"41026","region":"Emilia-Romagna","city":"Pavullo nel Frignano","latitude":44.33146,"longitude":10.835},"41027":{"code":"41027","region":"Emilia-Romagna","city":"Pievepelago","latitude":44.20475,"longitude":10.6166},"41029":{"code":"41029","region":"Emilia-Romagna","city":"Sestola","latitude":44.23046,"longitude":10.7714},"41030":{"code":"41030","region":"Trentino-Alto Adige","city":"Chiesa","latitude":45.9368,"longitude":11.27478},"41033":{"code":"41033","region":"Emilia-Romagna","city":"Concordia sulla Secchia","latitude":44.91317,"longitude":10.9833},"41037":{"code":"41037","region":"Emilia-Romagna","city":"Mirandola","latitude":44.88677,"longitude":11.0662},"41043":{"code":"41043","region":"Emilia-Romagna","city":"Formigine","latitude":44.57296,"longitude":10.847},"41049":{"code":"41049","region":"Emilia-Romagna","city":"Sassuolo","latitude":44.55086,"longitude":10.7847},"41057":{"code":"41057","region":"Emilia-Romagna","city":"Spilamberto","latitude":44.53426,"longitude":11.0195},"41058":{"code":"41058","region":"Emilia-Romagna","city":"Vignola","latitude":44.48296,"longitude":11.0048},"41100":{"code":"41100","region":"Emilia-Romagna","city":"Modena","latitude":44.64783,"longitude":10.92539},"42010":{"code":"42010","region":"Emilia-Romagna","city":"Toano","latitude":44.37636,"longitude":10.5612},"42015":{"code":"42015","region":"Emilia-Romagna","city":"Correggio","latitude":44.76977,"longitude":10.7823},"42016":{"code":"42016","region":"Emilia-Romagna","city":"Reggio nell'Emilia","latitude":44.69825,"longitude":10.63125},"42017":{"code":"42017","region":"Emilia-Romagna","city":"Novellara","latitude":44.84297,"longitude":10.72749},"42019":{"code":"42019","region":"Emilia-Romagna","city":"Scandiano","latitude":44.59646,"longitude":10.6907},"42020":{"code":"42020","region":"Emilia-Romagna","city":"Parma","latitude":44.80266,"longitude":10.32898},"42025":{"code":"42025","region":"Emilia-Romagna","city":"Reggio nell'Emilia","latitude":44.69825,"longitude":10.63125},"42030":{"code":"42030","region":"Emilia-Romagna","city":"Villa Minozzo","latitude":44.36506,"longitude":10.466},"42037":{"code":"42037","region":"Emilia-Romagna","city":"Collagna","latitude":44.34755,"longitude":10.27539},"42040":{"code":"42040","region":"Emilia-Romagna","city":"Sant'Ilario d'Enza","latitude":44.76246,"longitude":10.44809},"43010":{"code":"43010","region":"Emilia-Romagna","city":"Fontevivo","latitude":44.85876,"longitude":10.17518},"43011":{"code":"43011","region":"Emilia-Romagna","city":"Busseto","latitude":44.98057,"longitude":10.04208},"43018":{"code":"43018","region":"Emilia-Romagna","city":"Sissa","latitude":44.95927,"longitude":10.26058},"43028":{"code":"43028","region":"Emilia-Romagna","city":"Parma","latitude":44.80266,"longitude":10.32898},"43032":{"code":"43032","region":"Emilia-Romagna","city":"Bardi","latitude":44.63296,"longitude":9.73017},"43036":{"code":"43036","region":"Emilia-Romagna","city":"Fidenza","latitude":44.86396,"longitude":10.06668},"43041":{"code":"43041","region":"Emilia-Romagna","city":"Bedonia","latitude":44.49805,"longitude":9.63277},"43042":{"code":"43042","region":"Emilia-Romagna","city":"Berceto","latitude":44.50899,"longitude":9.99104},"43043":{"code":"43043","region":"Emilia-Romagna","city":"Borgo Val di Taro","latitude":44.48705,"longitude":9.76578},"43044":{"code":"43044","region":"Emilia-Romagna","city":"Parma","latitude":44.80266,"longitude":10.32898},"43049":{"code":"43049","region":"Emilia-Romagna","city":"Varsi","latitude":44.66216,"longitude":9.84668},"43051":{"code":"43051","region":"Emilia-Romagna","city":"Albereto di Borgotaro","latitude":44.44655,"longitude":9.69998},"43100":{"code":"43100","region":"Emilia-Romagna","city":"Parma","latitude":44.80266,"longitude":10.32898},"44011":{"code":"44011","region":"Emilia-Romagna","city":"Argenta","latitude":44.61237,"longitude":11.83562},"44015":{"code":"44015","region":"Emilia-Romagna","city":"Portomaggiore","latitude":44.69848,"longitude":11.80682},"44019":{"code":"44019","region":"Emilia-Romagna","city":"Voghiera","latitude":44.75558,"longitude":11.75182},"44020":{"code":"44020","region":"Emilia-Romagna","city":"Ostellato","latitude":44.74568,"longitude":11.94352},"44021":{"code":"44021","region":"Emilia-Romagna","city":"Codigoro","latitude":44.83111,"longitude":12.11417},"44022":{"code":"44022","region":"Emilia-Romagna","city":"Comacchio","latitude":44.6975,"longitude":12.18583},"44023":{"code":"44023","region":"Emilia-Romagna","city":"Lagosanto","latitude":44.75861,"longitude":12.14361},"44025":{"code":"44025","region":"Emilia-Romagna","city":"Massa Fiscaglia","latitude":44.79694,"longitude":12.02889},"44026":{"code":"44026","region":"Emilia-Romagna","city":"Ferrara","latitude":44.82678,"longitude":11.62071},"44027":{"code":"44027","region":"Emilia-Romagna","city":"Migliarino","latitude":44.76988,"longitude":11.93372},"44034":{"code":"44034","region":"Emilia-Romagna","city":"Copparo","latitude":44.89298,"longitude":11.82492},"44039":{"code":"44039","region":"Emilia-Romagna","city":"Tresigallo","latitude":44.81598,"longitude":11.89472},"44042":{"code":"44042","region":"Emilia-Romagna","city":"Cento","latitude":44.72597,"longitude":11.28821},"44100":{"code":"44100","region":"Emilia-Romagna","city":"Ferrara","latitude":44.82678,"longitude":11.62071},"45010":{"code":"45010","region":"Veneto","city":"Rosolina","latitude":45.07306,"longitude":12.24861},"45012":{"code":"45012","region":"Veneto","city":"Ariano nel Polesine","latitude":44.94,"longitude":12.13889},"45014":{"code":"45014","region":"Veneto","city":"Porto Viro","latitude":45.01667,"longitude":12.21667},"45015":{"code":"45015","region":"Veneto","city":"Corbola","latitude":45.00417,"longitude":12.08083},"45018":{"code":"45018","region":"Veneto","city":"Porto Tolle","latitude":44.94969,"longitude":12.32453},"45019":{"code":"45019","region":"Emilia-Romagna","city":"Mesola","latitude":44.92333,"longitude":12.24556},"45020":{"code":"45020","region":"Veneto","city":"Villanova del Ghebbo","latitude":45.05918,"longitude":11.63901},"45021":{"code":"45021","region":"Veneto","city":"Badia Polesine","latitude":45.09718,"longitude":11.4916},"45024":{"code":"45024","region":"Veneto","city":"Fiesso Umbertiano","latitude":44.96258,"longitude":11.60541},"45026":{"code":"45026","region":"Veneto","city":"Lendinara","latitude":45.08428,"longitude":11.59971},"45030":{"code":"45030","region":"Veneto","city":"Gaiba","latitude":44.94618,"longitude":11.48021},"45031":{"code":"45031","region":"Veneto","city":"Pincara","latitude":44.99138,"longitude":11.60881},"45034":{"code":"45034","region":"Veneto","city":"Canaro","latitude":44.93718,"longitude":11.67611},"45035":{"code":"45035","region":"Veneto","city":"Castelmassa","latitude":45.01848,"longitude":11.3133},"45038":{"code":"45038","region":"Veneto","city":"Polesella","latitude":44.96238,"longitude":11.75281},"45039":{"code":"45039","region":"Veneto","city":"Stienta","latitude":44.94108,"longitude":11.54211},"45100":{"code":"45100","region":"Veneto","city":"Rovigo","latitude":45.07998,"longitude":11.79301},"46010":{"code":"46010","region":"Lombardia","city":"Mantova","latitude":45.16031,"longitude":10.79784},"46014":{"code":"46014","region":"Lombardia","city":"Castellucchio","latitude":45.14728,"longitude":10.64848},"46019":{"code":"46019","region":"Lombardia","city":"Viadana","latitude":44.92947,"longitude":10.51859},"46020":{"code":"46020","region":"Lombardia","city":"Quingentole","latitude":45.03908,"longitude":11.0458},"46023":{"code":"46023","region":"Lombardia","city":"Gonzaga","latitude":44.94977,"longitude":10.82089},"46025":{"code":"46025","region":"Lombardia","city":"Poggio Rusco","latitude":44.97488,"longitude":11.1187},"46026":{"code":"46026","region":"Lombardia","city":"Quistello","latitude":45.00558,"longitude":10.9823},"46028":{"code":"46028","region":"Lombardia","city":"Sermide","latitude":45.00448,"longitude":11.294},"46030":{"code":"46030","region":"Lombardia","city":"Sustinente","latitude":45.06988,"longitude":11.0181},"46032":{"code":"46032","region":"Lombardia","city":"Castelbelforte","latitude":45.21208,"longitude":10.89249},"46033":{"code":"46033","region":"Lombardia","city":"Castel d'Ario","latitude":45.18798,"longitude":10.97449},"46035":{"code":"46035","region":"Lombardia","city":"Ostiglia","latitude":45.07118,"longitude":11.1374},"46036":{"code":"46036","region":"Lombardia","city":"Revere","latitude":45.05348,"longitude":11.1313},"46037":{"code":"46037","region":"Lombardia","city":"Roncoferraro","latitude":45.14058,"longitude":10.93949},"46040":{"code":"46040","region":"Lombardia","city":"Solferino","latitude":45.36858,"longitude":10.56668},"46043":{"code":"46043","region":"Lombardia","city":"Castiglione delle Stiviere","latitude":45.39058,"longitude":10.48528},"46100":{"code":"46100","region":"Lombardia","city":"Mantova","latitude":45.16031,"longitude":10.79784},"47012":{"code":"47012","region":"Emilia-Romagna","city":"Civitella di Romagna","latitude":44.00766,"longitude":11.94223},"47013":{"code":"47013","region":"Emilia-Romagna","city":"Dovadola","latitude":44.12266,"longitude":11.88873},"47015":{"code":"47015","region":"Emilia-Romagna","city":"Modigliana","latitude":44.16116,"longitude":11.79353},"47017":{"code":"47017","region":"Emilia-Romagna","city":"Rocca San Casciano","latitude":44.05916,"longitude":11.84313},"47018":{"code":"47018","region":"Emilia-Romagna","city":"Santa Sofia","latitude":43.94446,"longitude":11.90873},"47019":{"code":"47019","region":"Emilia-Romagna","city":"Tredozio","latitude":44.08096,"longitude":11.74413},"47020":{"code":"47020","region":"Emilia-Romagna","city":"Cesena","latitude":44.1391,"longitude":12.24315},"47021":{"code":"47021","region":"Emilia-Romagna","city":"Bagno di Romagna","latitude":43.83546,"longitude":11.96016},"47023":{"code":"47023","region":"Emilia-Romagna","city":"Cesena","latitude":44.1391,"longitude":12.24315},"47025":{"code":"47025","region":"Emilia-Romagna","city":"Mercato Saraceno","latitude":43.96376,"longitude":12.19754},"47028":{"code":"47028","region":"Emilia-Romagna","city":"Verghereto","latitude":43.79296,"longitude":12.00394},"47030":{"code":"47030","region":"Emilia-Romagna","city":"San Mauro Pascoli","latitude":44.10972,"longitude":12.42278},"47042":{"code":"47042","region":"Emilia-Romagna","city":"Cesenatico","latitude":44.19987,"longitude":12.3991},"47100":{"code":"47100","region":"Emilia-Romagna","city":"Forli","latitude":44.22361,"longitude":12.05278},"47822":{"code":"47822","region":"Emilia-Romagna","city":"Sant'Arcangelo di Romagna","latitude":44.06326,"longitude":12.44657},"47824":{"code":"47824","region":"Emilia-Romagna","city":"Poggio Berni","latitude":44.02639,"longitude":12.40944},"47833":{"code":"47833","region":"Emilia-Romagna","city":"Morciano di Romagna","latitude":43.91406,"longitude":12.65055},"47838":{"code":"47838","region":"Emilia-Romagna","city":"Riccione Marina","latitude":43.99942,"longitude":12.65689},"47841":{"code":"47841","region":"Emilia-Romagna","city":"Cattolica","latitude":43.95747,"longitude":12.73755},"47842":{"code":"47842","region":"Emilia-Romagna","city":"San Giovanni in Marignano","latitude":43.93416,"longitude":12.70135},"47853":{"code":"47853","region":"Emilia-Romagna","city":"Coriano","latitude":43.96906,"longitude":12.60055},"47854":{"code":"47854","region":"Emilia-Romagna","city":"Montescudo","latitude":43.91946,"longitude":12.54295},"47855":{"code":"47855","region":"Emilia-Romagna","city":"Gemmano","latitude":43.90396,"longitude":12.58155},"47863":{"code":"47863","region":"Emilia-Romagna","city":"Novafeltria","latitude":43.89486,"longitude":12.28894},"47864":{"code":"47864","region":"Emilia-Romagna","city":"Pennabilli","latitude":43.81806,"longitude":12.26564},"47865":{"code":"47865","region":"Emilia-Romagna","city":"San Leo","latitude":43.89696,"longitude":12.34364},"47867":{"code":"47867","region":"Emilia-Romagna","city":"Talamello","latitude":43.90566,"longitude":12.28484},"47900":{"code":"47900","region":"Emilia-Romagna","city":"Rimini","latitude":44.06333,"longitude":12.58083},"48011":{"code":"48011","region":"Emilia-Romagna","city":"Alfonsine","latitude":44.50611,"longitude":12.05639},"48013":{"code":"48013","region":"Emilia-Romagna","city":"Brisighella","latitude":44.22166,"longitude":11.77483},"48015":{"code":"48015","region":"Emilia-Romagna","city":"Cervia","latitude":44.26204,"longitude":12.34812},"48018":{"code":"48018","region":"Emilia-Romagna","city":"Faenza","latitude":44.2857,"longitude":11.88334},"48020":{"code":"48020","region":"Emilia-Romagna","city":"Sant'Agata sul Santerno","latitude":44.44217,"longitude":11.86012},"48025":{"code":"48025","region":"Emilia-Romagna","city":"Riolo Terme","latitude":44.27536,"longitude":11.72782},"48026":{"code":"48026","region":"Emilia-Romagna","city":"Russi","latitude":44.3725,"longitude":12.03222},