{"id":"MT","country":"Malta","postal":{"ISL 1551":{"code":"ISL 1551","region":"Birgu","city":"Vittoriosa","latitude":35.89222,"longitude":14.51833},"MLH 9090":{"code":"MLH 9090","region":"Mellieha","city":"Mellieha","latitude":35.95639,"longitude":14.36222},"XBX 1531":{"code":"XBX 1531","region":"Ta' Xbiex","city":"Ta' Xbiex","latitude":35.89917,"longitude":14.49444},"STJ 4011":{"code":"STJ 4011","region":"Saint Julian's","city":"San Giljan","latitude":35.91839,"longitude":14.48977},"NDR 9090":{"code":"NDR 9090","region":"Nadur","city":"Nadur","latitude":36.03778,"longitude":14.29417},"VLT 1980":{"code":"VLT 1980","region":"Valletta","city":"Valletta","latitude":35.89972,"longitude":14.51472},"RBT 4430":{"code":"RBT 4430","region":"Siggiewi","city":"Siggiewi","latitude":35.85556,"longitude":14.43639},"ZBR 5011":{"code":"ZBR 5011","region":"Zabbar","city":"Zabbar","latitude":35.87611,"longitude":14.535},"MTP 1001":{"code":"MTP 1001","region":"Marsa","city":"Marsa","latitude":35.87917,"longitude":14.49528},"SVR 9010":{"code":"SVR 9010","region":"Hamrun","city":"Hamrun","latitude":35.88472,"longitude":14.48444},"NXR 6345":{"code":"NXR 6345","region":"Naxxar","city":"Naxxar","latitude":35.91361,"longitude":14.44361},"ZTN 4299":{"code":"ZTN 4299","region":"Zejtun","city":"Zejtun","latitude":35.85583,"longitude":14.53306},"":{"code":"","region":"Mgarr","city":"Iz-Zebbiegh","latitude":35.9203,"longitude":14.3794},"SPB 2841":{"code":"SPB 2841","region":"Saint Paul's Bay","city":"San Pawl il-Bahar","latitude":35.95064,"longitude":14.41561},"BKR4953":{"code":"BKR4953","region":"Birkirkara","city":"Birkirkara","latitude":35.89722,"longitude":14.46111},"DGL 9019":{"code":"DGL 9019","region":"Dingli","city":"Dingli","latitude":35.86139,"longitude":14.38222},"LQA 9070":{"code":"LQA 9070","region":"Luqa","city":"Luqa","latitude":35.85889,"longitude":14.48861},"MST 9059":{"code":"MST 9059","region":"Mosta","city":"Mosta","latitude":35.90917,"longitude":14.42556},"QRM 9040":{"code":"QRM 9040","region":"Qormi","city":"Qormi","latitude":35.87601,"longitude":14.472},"MRS 1501":{"code":"MRS 1501","region":"Marsa","city":"Marsa","latitude":35.87917,"longitude":14.49528},"ZRQ 9040":{"code":"ZRQ 9040","region":"Zurrieq","city":"Zurrieq","latitude":35.83111,"longitude":14.47417},"TXN 9048":{"code":"TXN 9048","region":"Fgura","city":"Fgura","latitude":35.87028,"longitude":14.51333},"KKR 2302":{"code":"KKR 2302","region":"Bormla","city":"Cospicua","latitude":35.88556,"longitude":14.5275},"BBG 9034":{"code":"BBG 9034","region":"Birzebbuga","city":"Birzebbuga","latitude":35.82583,"longitude":14.52694},"LJA 9021":{"code":"LJA 9021","region":"Lija","city":"Lija","latitude":35.90056,"longitude":14.44639},"ATD 9090":{"code":"ATD 9090","region":"Attard","city":"Attard","latitude":35.88972,"longitude":14.4425},"XRA 9021":{"code":"XRA 9021","region":"Xaghra","city":"Xaghra","latitude":36.05,"longitude":14.26444},"IKL 9033":{"code":"IKL 9033","region":"Iklin","city":"L-Iklin","latitude":35.90414,"longitude":14.45415},"BKR 4743":{"code":"BKR 4743","region":"Birkirkara","city":"Birkirkara","latitude":35.89722,"longitude":14.46111},"FRN 9021":{"code":"FRN 9021","region":"Floriana","city":"Floriana","latitude":35.89583,"longitude":14.50833},"VCT 2913":{"code":"VCT 2913","region":"Rabat Gozo","city":"Victoria","latitude":36.04444,"longitude":14.23972},"QLA 9043":{"code":"QLA 9043","region":"Qala","city":"Qala","latitude":36.03611,"longitude":14.30944},"GZR 1723":{"code":"GZR 1723","region":"Ta' Xbiex","city":"Il-Gzira","latitude":35.90583,"longitude":14.48806},"SWQ 3570":{"code":"SWQ 3570","region":"Swieqi","city":"Swieqi","latitude":35.9225,"longitude":14.48},"SLM 3180":{"code":"SLM 3180","region":"Sliema","city":"Sliema","latitude":35.9125,"longitude":14.50194},"SGN 3533":{"code":"SGN 3533","region":"Saint John","city":"Saint John","latitude":35.90556,"longitude":14.47611},"RBT 6930":{"code":"RBT 6930","region":"Rabat Malta","city":"Rabat","latitude":35.87417,"longitude":14.39415},"KKP 9090":{"code":"KKP 9090","region":"Kirkop","city":"Kirkop","latitude":35.84222,"longitude":14.48528},"BZN 9019":{"code":"BZN 9019","region":"Balzan","city":"Balzan","latitude":35.90028,"longitude":14.455},"SFI 9015":{"code":"SFI 9015","region":"Safi","city":"Safi","latitude":35.83306,"longitude":14.48472},"SGN07":{"code":"SGN07","region":"Saint John","city":"Saint John","latitude":35.90556,"longitude":14.47611},"PLA 9080":{"code":"PLA 9080","region":"Paola","city":"Paola","latitude":35.87306,"longitude":14.49889},"GXQ 9050":{"code":"GXQ 9050","region":"Ghaxaq","city":"Ghaxaq","latitude":35.84889,"longitude":14.51667},"QRD 3043":{"code":"QRD 3043","region":"Qrendi","city":"Qrendi","latitude":35.83472,"longitude":14.45833},"KCM 9010":{"code":"KCM 9010","region":"Kercem","city":"Kercem","latitude":36.04194,"longitude":14.22667},"MXK 9065":{"code":"MXK 9065","region":"Marsaxlokk","city":"Marsaxlokk","latitude":35.84194,"longitude":14.54306},"GHR 2070":{"code":"GHR 2070","region":"Gharghur","city":"Gharghur","latitude":35.92417,"longitude":14.45194},"XWK 9083":{"code":"XWK 9083","region":"Xewkija","city":"Xewkija","latitude":36.03278,"longitude":14.25806},"SLM 16":{"code":"SLM 16","region":"Sliema","city":"Sliema","latitude":35.9125,"longitude":14.50194},"MRS1501":{"code":"MRS1501","region":"Marsa","city":"Marsa","latitude":35.87917,"longitude":14.49528},"SVR 9034":{"code":"SVR 9034","region":"Santa Venera","city":"Santa Venera","latitude":35.89083,"longitude":14.47417},"GZR 1405":{"code":"GZR 1405","region":"Gzira","city":"Gzira","latitude":35.9058,"longitude":14.4881},"GDJ 9035":{"code":"GDJ 9035","region":"Gudja","city":"Gudja","latitude":35.84917,"longitude":14.50306},"SLC 2511":{"code":"SLC 2511","region":"Saint Lucia's","city":"Santa Lucija","latitude":35.86278,"longitude":14.5075},"GZR 04":{"code":"GZR 04","region":"Gzira","city":"Gzira","latitude":35.9058,"longitude":14.4881},"CSL22":{"code":"CSL22","region":"Valletta","city":"Valletta","latitude":35.89972,"longitude":14.51472},"TGL10":{"code":"TGL10","region":"Marsa","city":"Marsa","latitude":35.87917,"longitude":14.49528},"MQB 9041":{"code":"MQB 9041","region":"Mqabba","city":"Mqabba","latitude":35.84763,"longitude":14.46824},"MSD 06":{"code":"MSD 06","region":"Msida","city":"Msida","latitude":35.8925,"longitude":14.48278},"MGR 9090":{"code":"MGR 9090","region":"Ghajnsielem","city":"Mgarr","latitude":35.92056,"longitude":14.36639},"BKR 4953":{"code":"BKR 4953","region":"Birkirkara","city":"Birkirkara","latitude":35.89722,"longitude":14.46111},"USL15":{"code":"USL15","region":"Gzira","city":"Gzira","latitude":35.9058,"longitude":14.4881},"QRM9030":{"code":"QRM9030","region":"Qormi","city":"Qormi","latitude":35.87601,"longitude":14.472},"BSL21":{"code":"BSL21","region":"Ta' Xbiex","city":"Ta' Xbiex","latitude":35.89917,"longitude":14.49444},"MST 03":{"code":"MST 03","region":"Valletta","city":"Valletta","latitude":35.89972,"longitude":14.51472},"NXR3266":{"code":"NXR3266","region":"Naxxar","city":"Naxxar","latitude":35.91361,"longitude":14.44361},"HMR16":{"code":"HMR16","region":"Santa Venera","city":"Santa Venera","latitude":35.89083,"longitude":14.47417},"SLM3173":{"code":"SLM3173","region":"Sliema","city":"Sliema","latitude":35.9125,"longitude":14.50194}}}