{"id":"PH","country":"Philippines","postal":{"1004":{"code":"1004","region":"National Capital Region","city":"Pasay","latitude":14.55,"longitude":121},"1006":{"code":"1006","region":"National Capital Region","city":"Manila","latitude":14.6042,"longitude":120.9822},"1016":{"code":"1016","region":"Laguna","city":"Santa Maria","latitude":14.4719,"longitude":121.4286},"1099":{"code":"1099","region":"National Capital Region","city":"Manila","latitude":14.6042,"longitude":120.9822},"1100":{"code":"1100","region":"National Capital Region","city":"Quezon City","latitude":14.6627,"longitude":121.0328},"1101":{"code":"1101","region":"National Capital Region","city":"Quezon City","latitude":14.6627,"longitude":121.0328},"1105":{"code":"1105","region":"Tarlac","city":"Talaga","latitude":15.38506,"longitude":120.58573},"1107":{"code":"1107","region":"National Capital Region","city":"Muntinlupa","latitude":14.383333,"longitude":121.05},"1108":{"code":"1108","region":"Batangas","city":"Alupay","latitude":13.84194,"longitude":121.29583},"1109":{"code":"1109","region":"Bataan","city":"San Benito","latitude":14.85083,"longitude":120.4275},"1110":{"code":"1110","region":"Nueva Ecija","city":"Santo Tomas","latitude":15.75389,"longitude":120.95083},"1112":{"code":"1112","region":"National Capital Region","city":"Quezon City","latitude":14.6627,"longitude":121.0328},"1114":{"code":"1114","region":"Bulacan","city":"Balasing","latitude":14.8545,"longitude":121.0127},"1116":{"code":"1116","region":"Pampanga","city":"Santo Tomas","latitude":14.9923,"longitude":120.7057},"1174":{"code":"1174","region":"National Capital Region","city":"Manila","latitude":14.6042,"longitude":120.9822},"1200":{"code":"1200","region":"National Capital Region","city":"Makati","latitude":14.55027,"longitude":121.03269},"1203":{"code":"1203","region":"National Capital Region","city":"Makati","latitude":14.55027,"longitude":121.03269},"1214":{"code":"1214","region":"National Capital Region","city":"Makati","latitude":14.55027,"longitude":121.03269},"1226":{"code":"1226","region":"National Capital Region","city":"Makati","latitude":14.55027,"longitude":121.03269},"1227":{"code":"1227","region":"National Capital Region","city":"Manila","latitude":14.6042,"longitude":120.9822},"1280":{"code":"1280","region":"National Capital Region","city":"Makati","latitude":14.55027,"longitude":121.03269},"1304":{"code":"1304","region":"Batangas","city":"Ilijan","latitude":13.62556,"longitude":121.07528},"1381":{"code":"1381","region":"Batangas","city":"Bulacanin","latitude":13.98583,"longitude":121.14111},"1409":{"code":"1409","region":"Quezon","city":"Quipot","latitude":13.7775,"longitude":121.39611},"1441":{"code":"1441","region":"Rizal","city":"Valenzuela","latitude":14.7,"longitude":120.9667},"1444":{"code":"1444","region":"Marinduque","city":"Buyabod","latitude":13.4666,"longitude":122.0526},"1446":{"code":"1446","region":"Bulacan","city":"Meycauayan","latitude":14.73694,"longitude":120.96083},"1470":{"code":"1470","region":"Zambales","city":"Malabon","latitude":15.6361,"longitude":119.9379},"1472":{"code":"1472","region":"Pangasinan","city":"Mabilao","latitude":16.1543,"longitude":120.4248},"1473":{"code":"1473","region":"National Capital Region","city":"Caloocan","latitude":14.65,"longitude":120.966667},"1479":{"code":"1479","region":"Bulacan","city":"San Jose del Monte","latitude":14.81389,"longitude":121.04528},"1485":{"code":"1485","region":"Rizal","city":"Navotas","latitude":14.4167,"longitude":121.2268},"1502":{"code":"1502","region":"National Capital Region","city":"Pasig","latitude":14.58699,"longitude":121.06496},"1555":{"code":"1555","region":"National Capital Region","city":"Manila","latitude":14.6042,"longitude":120.9822},"1556":{"code":"1556","region":"National Capital Region","city":"Mandaluyong City","latitude":14.5832,"longitude":121.0409},"1600":{"code":"1600","region":"National Capital Region","city":"Pasig","latitude":14.58699,"longitude":121.06496},"1605":{"code":"1605","region":"National Capital Region","city":"Pasig","latitude":14.58699,"longitude":121.06496},"1606":{"code":"1606","region":"National Capital Region","city":"Manila","latitude":14.6042,"longitude":120.9822},"1610":{"code":"1610","region":"Bukidnon","city":"Quezon","latitude":7.73028,"longitude":125.09889},"1611":{"code":"1611","region":"Cavite","city":"Bitangan","latitude":14.25389,"longitude":120.87833},"1612":{"code":"1612","region":"National Capital Region","city":"Paranaque","latitude":14.466667,"longitude":121.016667},"1632":{"code":"1632","region":"Rizal","city":"Taguig","latitude":14.5243,"longitude":121.0792},"1634":{"code":"1634","region":"Rizal","city":"Taguig","latitude":14.5243,"longitude":121.0792},"1680":{"code":"1680","region":"National Capital Region","city":"Manila","latitude":14.6042,"longitude":120.9822},"1685":{"code":"1685","region":"National Capital Region","city":"Manila","latitude":14.6042,"longitude":120.9822},"1700":{"code":"1700","region":"National Capital Region","city":"Paranaque","latitude":14.466667,"longitude":121.016667},"1701":{"code":"1701","region":"Camarines Sur","city":"Sagrada","latitude":13.5301,"longitude":123.4527},"1770":{"code":"1770","region":"National Capital Region","city":"Muntinlupa","latitude":14.383333,"longitude":121.05},"1773":{"code":"1773","region":"National Capital Region","city":"Muntinlupa","latitude":14.383333,"longitude":121.05},"1800":{"code":"1800","region":"National Capital Region","city":"Quezon City","latitude":14.6627,"longitude":121.0328},"1805":{"code":"1805","region":"National Capital Region","city":"Marikina","latitude":14.64,"longitude":121.097222},"1807":{"code":"1807","region":"Compostela Valley","city":"San-Miguel","latitude":7.6099,"longitude":126.126},"1808":{"code":"1808","region":"National Capital Region","city":"Tanza","latitude":10.83484,"longitude":123.011},"1860":{"code":"1860","region":"Rizal","city":"Rodriguez","latitude":14.7314,"longitude":121.1417},"1880":{"code":"1880","region":"Rizal","city":"Antipolo","latitude":14.58639,"longitude":121.17528},"1920":{"code":"1920","region":"Nueva Ecija","city":"Rizal","latitude":8.92917,"longitude":125.39861},"1950":{"code":"1950","region":"Rizal","city":"Morong","latitude":14.5115,"longitude":121.2393},"1980":{"code":"1980","region":"Rizal","city":"Tanay","latitude":14.4968,"longitude":121.2846},"2001":{"code":"2001","region":"Pampanga","city":"Bacolor","latitude":15.0003,"longitude":120.652},"2006":{"code":"2006","region":"Pampanga","city":"Floridablanca","latitude":14.9775,"longitude":120.5285},"2007":{"code":"2007","region":"National Capital Region","city":"Pasig","latitude":14.58699,"longitude":121.06496},"2009":{"code":"2009","region":"Pampanga","city":"Angeles City","latitude":15.15,"longitude":120.58333},"2010":{"code":"2010","region":"Pampanga","city":"Mabalacat","latitude":15.2216,"longitude":120.5736},"2012":{"code":"2012","region":"Pampanga","city":"Arayat","latitude":15.1505,"longitude":120.7697},"2013":{"code":"2013","region":"Pampanga","city":"Candaba","latitude":15.0956,"longitude":120.8267},"2015":{"code":"2015","region":"Pampanga","city":"Talang","latitude":15.0228,"longitude":120.8375},"2016":{"code":"2016","region":"Pampanga","city":"Apalit","latitude":14.95333,"longitude":120.77},"2102":{"code":"2102","region":"Bataan","city":"Orion","latitude":14.62056,"longitude":120.58167},"2103":{"code":"2103","region":"Bataan","city":"Limay","latitude":14.56194,"longitude":120.59833},"2106":{"code":"2106","region":"Bataan","city":"Mariveles","latitude":14.4361,"longitude":120.4857},"2107":{"code":"2107","region":"Bataan","city":"Bagac","latitude":14.5962,"longitude":120.3928},"2108":{"code":"2108","region":"National Capital Region","city":"Manila","latitude":14.6042,"longitude":120.9822},"2109":{"code":"2109","region":"Bataan","city":"Mabayo","latitude":14.7318,"longitude":120.2781},"2110":{"code":"2110","region":"Bataan","city":"Dinalupihan","latitude":14.8732,"longitude":120.4651},"2114":{"code":"2114","region":"Bataan","city":"Abucay","latitude":14.72222,"longitude":120.53833},"2133":{"code":"2133","region":"Bataan","city":"Cabcaben","latitude":14.454,"longitude":120.5914},"2200":{"code":"2200","region":"Zambales","city":"Olongapo","latitude":14.82917,"longitude":120.28278},"2201":{"code":"2201","region":"Zambales","city":"Iba","latitude":15.3276,"longitude":119.978},"2207":{"code":"2207","region":"Zambales","city":"San Agustin","latitude":14.93333,"longitude":120.15},"2208":{"code":"2208","region":"Zambales","city":"Castillejos","latitude":14.93039,"longitude":120.20143},"2209":{"code":"2209","region":"Zambales","city":"Subic","latitude":14.87999,"longitude":120.23433},"2211":{"code":"2211","region":"Zambales","city":"Palauig","latitude":15.435,"longitude":119.9045},"2222":{"code":"2222","region":"Zambales","city":"Subic","latitude":14.87999,"longitude":120.23433},"2302":{"code":"2302","region":"Tarlac","city":"Padapada","latitude":15.5517,"longitude":120.5163},"2303":{"code":"2303","region":"Tarlac","city":"Vargas","latitude":15.5928,"longitude":120.4867},"2304":{"code":"2304","region":"Tarlac","city":"Mayantoc","latitude":15.6199,"longitude":120.377},"2306":{"code":"2306","region":"Tarlac","city":"Camiling","latitude":15.6866,"longitude":120.4128},"2333":{"code":"2333","region":"Tarlac","city":"Santa Lucia","latitude":15.36806,"longitude":120.48643},"2400":{"code":"2400","region":"Pangasinan","city":"Dagupan","latitude":16.05,"longitude":120.333333},"2401":{"code":"2401","region":"Pangasinan","city":"Lingayen","latitude":16.02182,"longitude":120.23194},"2402":{"code":"2402","region":"Pangasinan","city":"Dulig","latitude":16.00212,"longitude":120.16864},"2403":{"code":"2403","region":"Pangasinan","city":"Sual","latitude":16.06682,"longitude":120.09414},"2407":{"code":"2407","region":"Tarlac","city":"Paniqui","latitude":15.6689,"longitude":120.5806},"2414":{"code":"2414","region":"Pangasinan","city":"Bacnar","latitude":15.88333,"longitude":120.33333},"2416":{"code":"2416","region":"Pangasinan","city":"Bugallon","latitude":15.9528,"longitude":120.2155},"2417":{"code":"2417","region":"Pangasinan","city":"Binmaley","latitude":16.0307,"longitude":120.2712},"2419":{"code":"2419","region":"Pangasinan","city":"Santa Barbara","latitude":16.0009,"longitude":120.4023},"2421":{"code":"2421","region":"Pangasinan","city":"Don Pedro","latitude":15.8894,"longitude":120.4281},"2423":{"code":"2423","region":"Pangasinan","city":"Bayambang","latitude":15.8127,"longitude":120.4557},"2427":{"code":"2427","region":"Pangasinan","city":"Villasis","latitude":15.90167,"longitude":120.58833},"2428":{"code":"2428","region":"Pangasinan","city":"Urdaneta","latitude":15.97611,"longitude":120.57111},"2429":{"code":"2429","region":"Pangasinan","city":"Maticmatic","latitude":15.987,"longitude":120.4544},"2430":{"code":"2430","region":"Pangasinan","city":"Manaoag","latitude":16.0438,"longitude":120.4861},"2432":{"code":"2432","region":"Pangasinan","city":"Mangaldan","latitude":16.07,"longitude":120.4025},"2433":{"code":"2433","region":"Nueva Ecija","city":"Tabaco","latitude":15.6414,"longitude":120.9349},"2435":{"code":"2435","region":"Pangasinan","city":"Palacpalac","latitude":16.1312,"longitude":120.5305},"2436":{"code":"2436","region":"Pangasinan","city":"Calepaan","latitude":16.0195,"longitude":120.619},"2439":{"code":"2439","region":"Pangasinan","city":"Asingan","latitude":16.0051,"longitude":120.6695},"2441":{"code":"2441","region":"Pangasinan","city":"Rosales","latitude":15.89444,"longitude":120.63278},"2442":{"code":"2442","region":"Nueva Vizcaya","city":"Bambang","latitude":16.3865,"longitude":121.1066},"2445":{"code":"2445","region":"Pangasinan","city":"Tayug","latitude":16.0274,"longitude":120.7434},"2446":{"code":"2446","region":"Pangasinan","city":"Lagasit","latitude":15.9934,"longitude":120.794},"2501":{"code":"2501","region":"La Union","city":"Bauang","latitude":16.53083,"longitude":120.33306},"2502":{"code":"2502","region":"La Union","city":"Caba","latitude":16.4316,"longitude":120.3446},"2503":{"code":"2503","region":"La Union","city":"Aringay","latitude":16.394,"longitude":120.3545},"2507":{"code":"2507","region":"La Union","city":"Damortis","latitude":16.2423,"longitude":120.4051},"2509":{"code":"2509","region":"Tarlac","city":"Nancamarinan","latitude":15.6752,"longitude":120.5364},"2515":{"code":"2515","region":"La Union","city":"Bacnotan","latitude":16.72222,"longitude":120.3525},"2517":{"code":"2517","region":"La Union","city":"Balaoan","latitude":16.8219,"longitude":120.4045},"2519":{"code":"2519","region":"La Union","city":"Bangar","latitude":16.8936,"longitude":120.4243},"2600":{"code":"2600","region":"Benguet","city":"Baguio","latitude":16.41639,"longitude":120.59306},"2601":{"code":"2601","region":"Benguet","city":"La Trinidad","latitude":16.455,"longitude":120.5875},"2604":{"code":"2604","region":"Benguet","city":"Itogon","latitude":16.36389,"longitude":120.67694},"2606":{"code":"2606","region":"National Capital Region","city":"Pasig","latitude":14.58699,"longitude":121.06496},"2612":{"code":"2612","region":"Benguet","city":"Loacan","latitude":16.55,"longitude":120.66667},"2616":{"code":"2616","region":"Mountain Province","city":"Betwagan","latitude":17.08333,"longitude":120.96667},"2702":{"code":"2702","region":"Ilocos Sur","city":"Caoayan","latitude":17.56194,"longitude":120.3975},"2708":{"code":"2708","region":"Ilocos Sur","city":"Banayoyo","latitude":17.23333,"longitude":120.48333},"2709":{"code":"2709","region":"Ilocos Sur","city":"Salcedo","latitude":17.15472,"longitude":120.53944},"2717":{"code":"2717","region":"Ilocos Sur","city":"Sugpon","latitude":16.8434,"longitude":120.5157},"2727":{"code":"2727","region":"Ilocos Sur","city":"Vigan","latitude":17.57472,"longitude":120.38694},"2800":{"code":"2800","region":"Abra","city":"Angad","latitude":17.5849,"longitude":120.6257},"2810":{"code":"2810","region":"Romblon","city":"San Fernando","latitude":12.30364,"longitude":122.60041},"2811":{"code":"2811","region":"Abra","city":"Villaviciosa","latitude":17.4379,"longitude":120.6262},"2814":{"code":"2814","region":"Isabela","city":"Banguero","latitude":17.02305,"longitude":121.77834},"2819":{"code":"2819","region":"Nueva Vizcaya","city":"Salinas","latitude":16.3695,"longitude":121.0188},"2826":{"code":"2826","region":"Tarlac","city":"La Paz","latitude":15.44125,"longitude":120.72863},"2900":{"code":"2900","region":"Ilocos Norte","city":"Laoag","latitude":18.19889,"longitude":120.59361},"2906":{"code":"2906","region":"Ilocos Norte","city":"Batac City","latitude":18.0554,"longitude":120.56489},"2919":{"code":"2919","region":"Ilocos Norte","city":"Pagudpud","latitude":18.5616,"longitude":120.7868},"2920":{"code":"2920","region":"Ilocos Norte","city":"Burgos","latitude":18.5121,"longitude":120.6445},"3000":{"code":"3000","region":"Bulacan","city":"Dampol","latitude":14.88444,"longitude":120.81194},"3001":{"code":"3001","region":"Bulacan","city":"Malolos","latitude":14.84194,"longitude":120.81167},"3002":{"code":"3002","region":"Bulacan","city":"Hagunoy","latitude":14.8321,"longitude":120.7336},"3003":{"code":"3003","region":"Bulacan","city":"Calumpit","latitude":14.91639,"longitude":120.76583},"3005":{"code":"3005","region":"Bulacan","city":"Pulilan","latitude":14.90167,"longitude":120.84917},"3010":{"code":"3010","region":"Bulacan","city":"Diliman","latitude":15.025,"longitude":120.9502},"3013":{"code":"3013","region":"Bulacan","city":"Norzagaray","latitude":14.9109,"longitude":121.0493},"3014":{"code":"3014","region":"Bulacan","city":"Pandi","latitude":14.865,"longitude":120.95722},"3015":{"code":"3015","region":"Bulacan","city":"Guiguinto","latitude":14.83333,"longitude":120.88333},"3016":{"code":"3016","region":"Bulacan","city":"Balagtas","latitude":14.81667,"longitude":120.86667},"3017":{"code":"3017","region":"Bulacan","city":"Bulacan","latitude":14.79278,"longitude":120.87889},"3018":{"code":"3018","region":"Bulacan","city":"Santa Maria","latitude":14.82083,"longitude":120.96361},"3019":{"code":"3019","region":"Bulacan","city":"Marilao","latitude":14.75778,"longitude":120.94833},"3024":{"code":"3024","region":"Bulacan","city":"Obando","latitude":14.7098,"longitude":120.9362},"3100":{"code":"3100","region":"Nueva Ecija","city":"Cabanatuan","latitude":15.48694,"longitude":120.9675},"3102":{"code":"3102","region":"Nueva Ecija","city":"San Leonardo","latitude":15.363,"longitude":120.9639},"3109":{"code":"3109","region":"Nueva Ecija","city":"Gapan","latitude":15.3072,"longitude":120.9464},"3111":{"code":"3111","region":"Nueva Ecija","city":"Santo Rosario","latitude":15.434,"longitude":120.8913},"3114":{"code":"3114","region":"Nueva Ecija","city":"Talavera","latitude":15.5883,"longitude":120.9192},"3115":{"code":"3115","region":"Nueva Ecija","city":"Cavite","latitude":15.6655,"longitude":120.7693},"3119":{"code":"3119","region":"Tarlac","city":"Tarlac","latitude":15.48889,"longitude":120.59861},"3200":{"code":"3200","region":"Aurora","city":"Baler","latitude":15.7589,"longitude":121.5607},"3202":{"code":"3202","region":"Aurora","city":"Maria Aurora","latitude":15.7967,"longitude":121.4737},"3300":{"code":"3300","region":"Isabela","city":"Ilagan","latitude":17.14854,"longitude":121.88924},"3303":{"code":"3303","region":"Isabela","city":"Reina Mercedes","latitude":16.98545,"longitude":121.82664},"3306":{"code":"3306","region":"Isabela","city":"Magdalena","latitude":16.93333,"longitude":121.76667},"3309":{"code":"3309","region":"Isabela","city":"Echague","latitude":16.7052,"longitude":121.6724},"3316":{"code":"3316","region":"Isabela","city":"Cabatuan","latitude":16.95655,"longitude":121.66854},"3318":{"code":"3318","region":"Rizal","city":"San Mateo","latitude":14.6982,"longitude":121.1236},"3319":{"code":"3319","region":"Isabela","city":"Cabulay","latitude":16.74556,"longitude":121.4975},"3320":{"code":"3320","region":"Nueva Vizcaya","city":"Belance","latitude":16.18333,"longitude":121.25},"3323":{"code":"3323","region":"Isabela","city":"Quirino","latitude":17.13333,"longitude":121.7},"3401":{"code":"3401","region":"Tarlac","city":"Vargas","latitude":15.5928,"longitude":120.4867},"3404":{"code":"3404","region":"Quirino","city":"Dumabato","latitude":16.31667,"longitude":121.7},"3500":{"code":"3500","region":"Cagayan","city":"Tuguegarao City","latitude":17.61306,"longitude":121.72694},"3507":{"code":"3507","region":"Cagayan","city":"Afusing Centro","latitude":17.8526,"longitude":121.6269},"3511":{"code":"3511","region":"Cagayan","city":"Pattao","latitude":18.24927,"longitude":121.81595},"3515":{"code":"3515","region":"Cagayan","city":"Aparri","latitude":18.3566,"longitude":121.6406},"3518":{"code":"3518","region":"Cagayan","city":"Namuac","latitude":18.6109,"longitude":121.1657},"3527":{"code":"3527","region":"Cagayan","city":"Dagupan","latitude":17.7061,"longitude":121.5047},"3600":{"code":"3600","region":"Ifugao","city":"Lagawe","latitude":16.79996,"longitude":121.11924},"3601":{"code":"3601","region":"Ifugao","city":"Banaue","latitude":16.91356,"longitude":121.06184},"3700":{"code":"3700","region":"Nueva Vizcaya","city":"Busilak","latitude":16.4775,"longitude":121.1241},"3702":{"code":"3702","region":"Laguna","city":"Taytay","latitude":14.1122,"longitude":121.4157},"3705":{"code":"3705","region":"Zamboanga Sibugay","city":"Ayala","latitude":6.9596,"longitude":121.948},"3900":{"code":"3900","region":"Batanes","city":"Basco","latitude":20.44865,"longitude":121.97017},"3902":{"code":"3902","region":"National Capital Region","city":"Manila","latitude":14.6042,"longitude":120.9822},"4000":{"code":"4000","region":"Laguna","city":"San Pablo","latitude":14.066667,"longitude":121.333333},"4001":{"code":"4001","region":"Pangasinan","city":"Alaminos","latitude":16.15611,"longitude":119.98111},"4006":{"code":"4006","region":"Rizal","city":"Teresa","latitude":14.5612,"longitude":121.2195},"4007":{"code":"4007","region":"Laguna","city":"Cigaras","latitude":14.2266,"longitude":121.4298},"4010":{"code":"4010","region":"Laguna","city":"Pila","latitude":14.2325,"longitude":121.3648},"4013":{"code":"4013","region":"Laguna","city":"Cavinti","latitude":14.24482,"longitude":121.50797},"4014":{"code":"4014","region":"Laguna","city":"Wawa","latitude":14.3019,"longitude":121.4595},"4016":{"code":"4016","region":"Laguna","city":"Paete","latitude":14.3647,"longitude":121.4829},"4020":{"code":"4020","region":"Laguna","city":"Mabitac","latitude":14.4259,"longitude":121.429},"4023":{"code":"4023","region":"Laguna","city":"San Pedro","latitude":14.3595,"longitude":121.0473},"4025":{"code":"4025","region":"Laguna","city":"Santa Cruz","latitude":14.27917,"longitude":121.08528},"4032":{"code":"4032","region":"Laguna","city":"San Diego","latitude":14.1872,"longitude":121.4867},"4100":{"code":"4100","region":"Cavite","city":"Cavite","latitude":14.4825,"longitude":120.91694},"4102":{"code":"4102","region":"Cavite","city":"Bacoor","latitude":14.45903,"longitude":120.92903},"4105":{"code":"4105","region":"Cavite","city":"Kanluran","latitude":14.41667,"longitude":120.85},"4106":{"code":"4106","region":"Cavite","city":"Cavite","latitude":14.4825,"longitude":120.91694},"4108":{"code":"4108","region":"Rizal","city":"Malabon","latitude":14.67333,"longitude":120.93972},"4110":{"code":"4110","region":"Cavite","city":"Naic","latitude":14.31812,"longitude":120.76609},"4112":{"code":"4112","region":"Cavite","city":"Maragondon","latitude":14.2733,"longitude":120.7377},"4116":{"code":"4116","region":"Cavite","city":"Carmona","latitude":14.3132,"longitude":121.0576},"4117":{"code":"4117","region":"Laguna","city":"Alaminos","latitude":14.06391,"longitude":121.24649},"4118":{"code":"4118","region":"Cavite","city":"Bulihan","latitude":14.26974,"longitude":120.99546},"4120":{"code":"4120","region":"Cavite","city":"Patuto","latitude":14.11667,"longitude":120.96667},"4123":{"code":"4123","region":"Cavite","city":"Alfonso","latitude":14.14083,"longitude":120.85389},"4200":{"code":"4200","region":"Batangas","city":"Batangas","latitude":13.75944,"longitude":121.06},"4201":{"code":"4201","region":"Batangas","city":"Bauan","latitude":13.7917,"longitude":121.0085},"4205":{"code":"4205","region":"Batangas","city":"Mulauin","latitude":13.86667,"longitude":121.01667},"4211":{"code":"4211","region":"Batangas","city":"Subic","latitude":13.94859,"longitude":120.94013},"4213":{"code":"4213","region":"Batangas","city":"Balayan","latitude":13.93714,"longitude":120.73224},"4215":{"code":"4215","region":"Batangas","city":"Calatagan","latitude":13.83224,"longitude":120.6322},"4216":{"code":"4216","region":"Batangas","city":"Lian","latitude":14.0381,"longitude":120.6509},"4217":{"code":"4217","region":"Batangas","city":"Lipa","latitude":13.93944,"longitude":121.17389},"4222":{"code":"4222","region":"Batangas","city":"Cuenca","latitude":13.902,"longitude":121.0521},"4224":{"code":"4224","region":"Batangas","city":"Padre Garcia","latitude":13.8791,"longitude":121.2139},"4228":{"code":"4228","region":"Batangas","city":"Aya","latitude":13.8945,"longitude":121.1139},"4229":{"code":"4229","region":"Batangas","city":"Lobo","latitude":13.6481,"longitude":121.2112},"4230":{"code":"4230","region":"Batangas","city":"Ibaan","latitude":13.8176,"longitude":121.133},"4233":{"code":"4233","region":"Batangas","city":"Malvar","latitude":14.04472,"longitude":121.15861},"4234":{"code":"4234","region":"Batangas","city":"Bilog-Bilog","latitude":14.11361,"longitude":121.08861},"4301":{"code":"4301","region":"Quezon","city":"Lucena","latitude":13.93139,"longitude":121.61722},"4302":{"code":"4302","region":"Quezon","city":"Pagbilao","latitude":13.975,"longitude":121.69194},"4304":{"code":"4304","region":"Camarines Sur","city":"Pili","latitude":13.5572,"longitude":123.2735},"4305":{"code":"4305","region":"Quezon","city":"Kalilayan Ibaba","latitude":13.85722,"longitude":121.93361},"4307":{"code":"4307","region":"Quezon","city":"Gumaca","latitude":13.91972,"longitude":122.10028},"4313":{"code":"4313","region":"Zambales","city":"San Felipe","latitude":15.06222,"longitude":120.07},"4316":{"code":"4316","region":"Quezon","city":"Lopez","latitude":13.88444,"longitude":122.26417},"4318":{"code":"4318","region":"Palawan","city":"Roxas","latitude":10.3215,"longitude":119.3451},"4322":{"code":"4322","region":"Quezon","city":"Sariaya","latitude":13.96444,"longitude":121.53},"4323":{"code":"4323","region":"Quezon","city":"Montecillo","latitude":13.88944,"longitude":121.47778},"4325":{"code":"4325","region":"Quezon","city":"Bungoy","latitude":13.99444,"longitude":121.36611},"4327":{"code":"4327","region":"Quezon","city":"Tayabas","latitude":14.02889,"longitude":121.59111},"4330":{"code":"4330","region":"Quezon","city":"Mauban","latitude":14.19111,"longitude":121.73111},"4331":{"code":"4331","region":"Quezon","city":"Atimonan","latitude":13.99583,"longitude":121.905},"4336":{"code":"4336","region":"Zambales","city":"Bolitoc","latitude":15.7395,"longitude":119.8769},"4338":{"code":"4338","region":"Quezon","city":"Infanta","latitude":14.7425,"longitude":121.64944},"4401":{"code":"4401","region":"Camarines Sur","city":"Camaligan","latitude":13.6224,"longitude":123.1667},"4405":{"code":"4405","region":"Camarines Sur","city":"Calabanga","latitude":13.7068,"longitude":123.2087},"4406":{"code":"4406","region":"Camarines Sur","city":"Cabusao","latitude":13.7227,"longitude":123.1169},"4408":{"code":"4408","region":"Camarines Sur","city":"Sipocot","latitude":13.768,"longitude":122.9762},"4413":{"code":"4413","region":"Camarines Sur","city":"Capucnasan","latitude":13.6,"longitude":123.21667},"4414":{"code":"4414","region":"Camarines Sur","city":"Cadlan","latitude":13.5971,"longitude":123.257},"4417":{"code":"4417","region":"Camarines Sur","city":"Bahay","latitude":13.5437,"longitude":123.0407},"4420":{"code":"4420","region":"Camarines Sur","city":"Tigaon","latitude":13.6331,"longitude":123.4968},"4422":{"code":"4422","region":"Camarines Sur","city":"Goa","latitude":13.6978,"longitude":123.4892},"4431":{"code":"4431","region":"Camarines Sur","city":"Iriga","latitude":13.425,"longitude":123.41778},"4432":{"code":"4432","region":"Camarines Sur","city":"Baao","latitude":13.4549,"longitude":123.3653},"4433":{"code":"4433","region":"Camarines Sur","city":"Antipolo","latitude":13.3927,"longitude":123.5231},"4434":{"code":"4434","region":"Camarines Sur","city":"Nabua","latitude":13.4075,"longitude":123.3724},"4500":{"code":"4500","region":"Albay","city":"Legaspi","latitude":13.13722,"longitude":123.73444},"4501":{"code":"4501","region":"Albay","city":"Camalig","latitude":13.1821,"longitude":123.6543},"4502":{"code":"4502","region":"Bulacan","city":"Loma de Gato","latitude":14.78333,"longitude":121},"4505":{"code":"4505","region":"Albay","city":"Ligao","latitude":13.24028,"longitude":123.5325},"4506":{"code":"4506","region":"Albay","city":"Lanigay","latitude":13.31667,"longitude":123.5},"4510":{"code":"4510","region":"Albay","city":"Tabaco","latitude":13.35861,"longitude":123.73361},"4514":{"code":"4514","region":"Albay","city":"Manito","latitude":13.1235,"longitude":123.8693},"4600":{"code":"4600","region":"Camarines Norte","city":"Daet","latitude":14.1122,"longitude":122.9553},"4609":{"code":"4609","region":"Cagayan","city":"Casambalangan","latitude":18.37646,"longitude":122.12745},"4700":{"code":"4700","region":"Sorsogon","city":"Abuyog","latitude":12.94667,"longitude":124.05528},"4706":{"code":"4706","region":"Sorsogon","city":"Utabi","latitude":12.6417,"longitude":123.9092},"4713":{"code":"4713","region":"Sorsogon","city":"Pili","latitude":12.98056,"longitude":123.86417},"4800":{"code":"4800","region":"Catanduanes","city":"Calatagan","latitude":13.5885,"longitude":124.2065},"4901":{"code":"4901","region":"Marinduque","city":"Bintacay","latitude":13.4986,"longitude":121.8768},"5000":{"code":"5000","region":"Iloilo","city":"Iloilo","latitude":10.69694,"longitude":122.56444},"5001":{"code":"5001","region":"Iloilo","city":"Ungca","latitude":10.75,"longitude":122.55},"5004":{"code":"5004","region":"Iloilo","city":"Jalaud","latitude":10.8436,"longitude":122.6404},"5006":{"code":"5006","region":"Iloilo","city":"Dumangas","latitude":10.825,"longitude":122.713},"5008":{"code":"5008","region":"Iloilo","city":"Abangay","latitude":10.96667,"longitude":122.65},"5009":{"code":"5009","region":"Cebu","city":"Liloan","latitude":10.16139,"longitude":125.13028},"5012":{"code":"5012","region":"Iloilo","city":"Ajuy","latitude":11.1724,"longitude":123.0197},"5015":{"code":"5015","region":"Iloilo","city":"Concepcion","latitude":11.2161,"longitude":123.1073},"5016":{"code":"5016","region":"Cebu","city":"Lapaz","latitude":10.9887,"longitude":123.9797},"5019":{"code":"5019","region":"Iloilo","city":"Guinticgan","latitude":11.5641,"longitude":123.1236},"5020":{"code":"5020","region":"Iloilo","city":"San Nicolas","latitude":10.68444,"longitude":122.49556},"5022":{"code":"5022","region":"Iloilo","city":"Guimbal","latitude":10.6633,"longitude":122.3228},"5023":{"code":"5023","region":"Pampanga","city":"San Joaquin","latitude":10.588,"longitude":122.1397},"5026":{"code":"5026","region":"Iloilo","city":"Leon","latitude":10.78085,"longitude":122.3894},"5033":{"code":"5033","region":"Iloilo","city":"Badiangan","latitude":10.9879,"longitude":122.5377},"5034":{"code":"5034","region":"Iloilo","city":"Janiuay","latitude":10.9493,"longitude":122.5061},"5038":{"code":"5038","region":"Iloilo","city":"Passi","latitude":11.10778,"longitude":122.64194},"5042":{"code":"5042","region":"Iloilo","city":"Jayubo","latitude":11.05,"longitude":122.38333},"5043":{"code":"5043","region":"Iloilo","city":"Lemery","latitude":11.2258,"longitude":122.9275},"5046":{"code":"5046","region":"Iloilo","city":"La Paz","latitude":10.4131,"longitude":122.5162},"5048":{"code":"5048","region":"Negros Occidental","city":"San Fernando","latitude":10.71028,"longitude":123.07},"5102":{"code":"5102","region":"Mindoro Occidental","city":"San Jose","latitude":12.35275,"longitude":121.06761},"5104":{"code":"5104","region":"Mindoro Occidental","city":"Barahan","latitude":13.0121,"longitude":120.762},"5105":{"code":"5105","region":"Laguna","city":"Maulawin","latitude":14.26667,"longitude":121.43333},"5200":{"code":"5200","region":"Bulacan","city":"Bayanan","latitude":13.3592,"longitude":121.1699},"5201":{"code":"5201","region":"Mindoro Oriental","city":"Aurora","latitude":13.2322,"longitude":121.1203},"5203":{"code":"5203","region":"Mindoro Oriental","city":"Balatero","latitude":13.5021,"longitude":120.9244},"5210":{"code":"5210","region":"Mindoro Oriental","city":"Bansud","latitude":12.865,"longitude":121.45639},"5214":{"code":"5214","region":"Mindoro Occidental","city":"Santa Teresa","latitude":12.25186,"longitude":121.11251},"5300":{"code":"5300","region":"Palawan","city":"Puerto Princesa","latitude":9.73917,"longitude":118.73528},"5301":{"code":"5301","region":"Palawan","city":"Irahuan","latitude":9.80278,"longitude":118.69861},"5302":{"code":"5302","region":"Palawan","city":"Narra","latitude":9.26877,"longitude":118.4043},"5306":{"code":"5306","region":"Palawan","city":"Tarusan","latitude":8.65462,"longitude":117.5104},"5313":{"code":"5313","region":"Palawan","city":"El Nido","latitude":11.18583,"longitude":119.39556},"5316":{"code":"5316","region":"Palawan","city":"Coron","latitude":11.9986,"longitude":120.2043},"5320":{"code":"5320","region":"Palawan","city":"Agutaya","latitude":11.148,"longitude":120.9417},"5321":{"code":"5321","region":"Palawan","city":"Cagayancillo","latitude":9.57694,"longitude":121.20722},"5401":{"code":"5401","region":"Masbate","city":"Masbate","latitude":12.36667,"longitude":123.61667},"5402":{"code":"5402","region":"Masbate","city":"Buenavista","latitude":12.17639,"longitude":123.79056},"5414":{"code":"5414","region":"Masbate","city":"Aroroy","latitude":12.5111,"longitude":123.3977},"5417":{"code":"5417","region":"Pangasinan","city":"Labney","latitude":16.1028,"longitude":120.4655},"5418":{"code":"5418","region":"Masbate","city":"San Jacinto","latitude":12.5677,"longitude":123.7337},"5419":{"code":"5419","region":"Cagayan","city":"Claveria","latitude":18.60742,"longitude":121.08322},"5505":{"code":"5505","region":"Romblon","city":"Odiongan","latitude":12.40167,"longitude":121.99194},"5509":{"code":"5509","region":"Romblon","city":"Alcantara","latitude":12.2589,"longitude":122.0544},"5513":{"code":"5513","region":"Pampanga","city":"San Fernando","latitude":15.0286,"longitude":120.6898},"5516":{"code":"5516","region":"Tarlac","city":"Cafe","latitude":15.33686,"longitude":120.70623},"5600":{"code":"5600","region":"Dinagat Islands","city":"Arellano","latitude":10.132,"longitude":125.497},"5604":{"code":"5604","region":"Aklan","city":"Kalibo","latitude":11.70611,"longitude":122.36444},"5607":{"code":"5607","region":"Aklan","city":"Nabas","latitude":11.831,"longitude":122.087},"5609":{"code":"5609","region":"Aklan","city":"Caticlan","latitude":11.93337,"longitude":121.95981},"5614":{"code":"5614","region":"Batangas","city":"Kinalaglagan","latitude":14,"longitude":121.1},"5706":{"code":"5706","region":"Antique","city":"Barbaza","latitude":11.19572,"longitude":122.03861},"5708":{"code":"5708","region":"Antique","city":"Culasi","latitude":11.42721,"longitude":122.05601},"5712":{"code":"5712","region":"Catanduanes","city":"Pandan","latitude":14.0453,"longitude":124.1694},"5715":{"code":"5715","region":"Antique","city":"Piape I","latitude":10.7288,"longitude":121.9724},"5801":{"code":"5801","region":"Capiz","city":"Panay","latitude":11.55778,"longitude":122.79417},"5805":{"code":"5805","region":"Capiz","city":"Sibaguan","latitude":11.55778,"longitude":122.71389},"5807":{"code":"5807","region":"Capiz","city":"Bula","latitude":11.448,"longitude":122.5685},"5811":{"code":"5811","region":"Capiz","city":"Cuartero","latitude":11.3407,"longitude":122.6694},"6000":{"code":"6000","region":"Cebu","city":"Cebu City","latitude":10.31672,"longitude":123.89071},"6006":{"code":"6006","region":"Cebu","city":"Catmon","latitude":10.71667,"longitude":124},"6013":{"code":"6013","region":"Cebu","city":"Daanbantayan","latitude":11.2505,"longitude":124},"6014":{"code":"6014","region":"Cebu","city":"Baugo","latitude":10.31667,"longitude":123.91667},"6015":{"code":"6015","region":"Cebu","city":"Lapu-Lapu City","latitude":10.31028,"longitude":123.94944},"6020":{"code":"6020","region":"Cebu","city":"Carcar","latitude":10.1061,"longitude":123.6402},"6022":{"code":"6022","region":"Cebu","city":"Tabon","latitude":9.7578,"longitude":123.4436},"6024":{"code":"6024","region":"Cebu","city":"El Pardo","latitude":9.66,"longitude":123.4944},"6026":{"code":"6026","region":"Cebu","city":"Santander","latitude":9.4156,"longitude":123.3291},"6034":{"code":"6034","region":"Cebu","city":"Alcantara","latitude":9.97556,"longitude":123.40611},"6035":{"code":"6035","region":"Cebu","city":"Tubod-dugoan","latitude":10.0443,"longitude":123.4994},"6036":{"code":"6036","region":"Cebu","city":"Barili","latitude":10.115,"longitude":123.5103},"6038":{"code":"6038","region":"Cebu","city":"Toledo","latitude":10.37917,"longitude":123.64194},"6041":{"code":"6041","region":"Cebu","city":"Buanoy","latitude":10.46746,"longitude":123.6999},"6046":{"code":"6046","region":"Cebu","city":"Bairan","latitude":10.19718,"longitude":123.7271},"6088":{"code":"6088","region":"Cebu","city":"Bonbon","latitude":10.2245,"longitude":123.5573},"6105":{"code":"6105","region":"Negros Occidental","city":"Hinigaran","latitude":10.2706,"longitude":122.8507},"6108":{"code":"6108","region":"Negros Occidental","city":"Bagumbayan","latitude":10.446,"longitude":122.8348},"6109":{"code":"6109","region":"Negros Occidental","city":"Kabankalan","latitude":9.98889,"longitude":122.81222},"6110":{"code":"6110","region":"Negros Occidental","city":"Caningay","latitude":9.8297,"longitude":122.6442},"6114":{"code":"6114","region":"Negros Occidental","city":"Asia","latitude":9.5506,"longitude":122.5164},"6116":{"code":"6116","region":"Negros Occidental","city":"Imbang","latitude":10.8,"longitude":123},"6117":{"code":"6117","region":"Negros Occidental","city":"Antipolo","latitude":10.3565,"longitude":122.9646},"6118":{"code":"6118","region":"Negros Occidental","city":"Saravia","latitude":10.87754,"longitude":122.9677},"6119":{"code":"6119","region":"Negros Occidental","city":"Daan Banua","latitude":10.90389,"longitude":123.06083},"6121":{"code":"6121","region":"Negros Occidental","city":"Tiglawigan","latitude":10.95389,"longitude":123.35806},"6122":{"code":"6122","region":"Negros Occidental","city":"Sagay","latitude":10.94472,"longitude":123.42417},"6127":{"code":"6127","region":"Negros Occidental","city":"Punao","latitude":10.56667,"longitude":123.4},"6129":{"code":"6129","region":"Negros Occidental","city":"Santa Cruz","latitude":10.63376,"longitude":123.0821},"6203":{"code":"6203","region":"Negros Oriental","city":"San Jose","latitude":9.41194,"longitude":123.23806},"6214":{"code":"6214","region":"Negros Oriental","city":"McKinley","latitude":10.0844,"longitude":123.2592},"6216":{"code":"6216","region":"Bohol","city":"Calape","latitude":9.8922,"longitude":123.8748},"6217":{"code":"6217","region":"Negros Oriental","city":"Dauin","latitude":9.1914,"longitude":123.2654},"6219":{"code":"6219","region":"Negros Oriental","city":"Canauay","latitude":9.0651,"longitude":123.0524},"6222":{"code":"6222","region":"Negros Oriental","city":"Bayawan","latitude":9.36361,"longitude":122.80111},"6223":{"code":"6223","region":"Negros Oriental","city":"Canlaon","latitude":10.38639,"longitude":123.19639},"6224":{"code":"6224","region":"Bohol","city":"Buenavista","latitude":9.84056,"longitude":124.2225},"6226":{"code":"6226","region":"Zambales","city":"San Juan","latitude":9.1603,"longitude":123.4926},"6267":{"code":"6267","region":"Negros Oriental","city":"Dumaguete","latitude":9.31028,"longitude":123.30806},"6300":{"code":"6300","region":"Bohol","city":"Tagbilaran","latitude":9.6475,"longitude":123.85556},"6306":{"code":"6306","region":"Bukidnon","city":"Valencia","latitude":7.90639,"longitude":125.09417},"6307":{"code":"6307","region":"Bohol","city":"Estaca","latitude":9.6933,"longitude":124.2722},"6308":{"code":"6308","region":"Bohol","city":"Canjulao","latitude":9.6605,"longitude":124.3532},"6310":{"code":"6310","region":"Bohol","city":"Catungawan Sur","latitude":9.7817,"longitude":124.4693},"6313":{"code":"6313","region":"Negros Occidental","city":"Bugang","latitude":10.74185,"longitude":123.3933},"6326":{"code":"6326","region":"Bohol","city":"Trinidad","latitude":10.07955,"longitude":124.34324},"6327":{"code":"6327","region":"Bohol","city":"Loon","latitude":9.7998,"longitude":123.7929},"6334":{"code":"6334","region":"Bohol","city":"Jandayan","latitude":10.16667,"longitude":124.18333},"6337":{"code":"6337","region":"Bohol","city":"Corella","latitude":9.6875,"longitude":123.9218},"6339":{"code":"6339","region":"Bohol","city":"Catarman","latitude":9.60222,"longitude":123.86444},"6340":{"code":"6340","region":"Bohol","city":"Panglao","latitude":9.57806,"longitude":123.74583},"6344":{"code":"6344","region":"Cebu","city":"Danao","latitude":10.52083,"longitude":124.02722},"6347":{"code":"6347","region":"La Union","city":"San Fernando","latitude":16.61591,"longitude":120.31663},"6405":{"code":"6405","region":"Northern Samar","city":"Victoria","latitude":12.44722,"longitude":124.31111},"6406":{"code":"6406","region":"Laguna","city":"Victoria","latitude":14.2277,"longitude":121.3292},"6415":{"code":"6415","region":"Pampanga","city":"Gutad","latitude":14.9274,"longitude":120.4894},"6417":{"code":"6417","region":"Northern Samar","city":"Mondragon","latitude":12.5157,"longitude":124.7523},"6500":{"code":"6500","region":"Leyte","city":"Panalanoy","latitude":11.25111,"longitude":125.00639},"6501":{"code":"6501","region":"Leyte","city":"Baras","latitude":11.18333,"longitude":125.01667},"6503":{"code":"6503","region":"Camarines Norte","city":"Mercedes","latitude":6.95861,"longitude":122.14833},"6507":{"code":"6507","region":"Leyte","city":"Mayorga","latitude":10.9,"longitude":125},"6524":{"code":"6524","region":"Leyte","city":"Tabonoc","latitude":10.35,"longitude":124.8},"6532":{"code":"6532","region":"Cebu","city":"Atop-atop","latitude":11.2322,"longitude":123.7602},"6538":{"code":"6538","region":"Leyte","city":"Tagbubungang Diot","latitude":11.1257,"longitude":124.4028},"6541":{"code":"6541","region":"Leyte","city":"Ormoc","latitude":11.00639,"longitude":124.6075},"6542":{"code":"6542","region":"Leyte","city":"Balogo","latitude":10.8868,"longitude":124.7105},"6543":{"code":"6543","region":"Leyte","city":"Catmon","latitude":11.5238,"longitude":124.423},"6600":{"code":"6600","region":"Southern Leyte","city":"Ibarra","latitude":10.12472,"longitude":124.88417},"6601":{"code":"6601","region":"Southern Leyte","city":"Macrohon","latitude":10.07972,"longitude":124.94306},"6604":{"code":"6604","region":"Leyte","city":"Bantiqui","latitude":10.9245,"longitude":124.4154},"6610":{"code":"6610","region":"Leyte","city":"Anahawan","latitude":10.3429,"longitude":124.8782},"6612":{"code":"6612","region":"Cebu","city":"Compostela","latitude":10.455,"longitude":124.0106},"6615":{"code":"6615","region":"Southern Leyte","city":"Sogod","latitude":10.3847,"longitude":124.9814},"6710":{"code":"6710","region":"Samar","city":"Calbayog","latitude":12.06722,"longitude":124.60417},"6724":{"code":"6724","region":"Samar","city":"Almagro","latitude":11.9109,"longitude":124.2858},"6800":{"code":"6800","region":"Eastern Samar","city":"Borongan","latitude":11.60806,"longitude":125.43194},"6803":{"code":"6803","region":"Eastern Samar","city":"Llorente","latitude":11.41194,"longitude":125.54583},"6805":{"code":"6805","region":"Eastern Samar","city":"General MacArthur","latitude":11.24639,"longitude":125.53944},"6816":{"code":"6816","region":"Eastern Samar","city":"Taft","latitude":11.90111,"longitude":125.41889},"6819":{"code":"6819","region":"Zamboanga Sibugay","city":"Ayala","latitude":6.9596,"longitude":121.948},"7000":{"code":"7000","region":"Zamboanga del Sur","city":"Zamboanga","latitude":6.91028,"longitude":122.07389},"7001":{"code":"7001","region":"Zamboanga del Sur","city":"Ipil","latitude":7.78444,"longitude":122.58611},"7006":{"code":"7006","region":"Cebu","city":"Naga","latitude":7.77028,"longitude":122.75083},"7008":{"code":"7008","region":"Negros Occidental","city":"Aguisan","latitude":10.16556,"longitude":122.86056},"7010":{"code":"7010","region":"Davao del Sur","city":"Lacson","latitude":7.21194,"longitude":125.44222},"7011":{"code":"7011","region":"Zamboanga del Sur","city":"San Pablo","latitude":7.65639,"longitude":123.46083},"7016":{"code":"7016","region":"Zamboanga del Sur","city":"Muricay","latitude":7.8275,"longitude":123.4782},"7017":{"code":"7017","region":"Zamboanga del Sur","city":"Tawagan","latitude":7.845,"longitude":123.47528},"7018":{"code":"7018","region":"Zamboanga del Sur","city":"Tungawan","latitude":7.50806,"longitude":122.37111},"7021":{"code":"7021","region":"Zamboanga del Sur","city":"Midsalip","latitude":8,"longitude":123.26667},"7023":{"code":"7023","region":"Zamboanga del Sur","city":"Molave","latitude":8.0844,"longitude":123.491},"7027":{"code":"7027","region":"Zamboanga del Sur","city":"Josefina","latitude":8.2,"longitude":123.53333},"7028":{"code":"7028","region":"Zamboanga del Sur","city":"Dumingag","latitude":8.16917,"longitude":123.35056},"7036":{"code":"7036","region":"Zamboanga del Sur","city":"Kagawasan","latitude":7.86611,"longitude":123.395},"7037":{"code":"7037","region":"Zamboanga del Sur","city":"San Miguel","latitude":7.64833,"longitude":123.2675},"7039":{"code":"7039","region":"Zamboanga del Sur","city":"Del Monte","latitude":7.72583,"longitude":123.00806},"7040":{"code":"7040","region":"Zamboanga del Sur","city":"Alicia","latitude":7.51389,"longitude":122.93},"7041":{"code":"7041","region":"Zamboanga del Sur","city":"Olutanga","latitude":7.31056,"longitude":122.84639},"7100":{"code":"7100","region":"Zamboanga del Norte","city":"Dipolog","latitude":8.58944,"longitude":123.34139},"7101":{"code":"7101","region":"Zamboanga del Norte","city":"Dapitan","latitude":8.64639,"longitude":123.42083},"7102":{"code":"7102","region":"Capiz","city":"Roxas City","latitude":11.58528,"longitude":122.75111},"7106":{"code":"7106","region":"Zamboanga del Norte","city":"Polanco","latitude":8.5329,"longitude":123.3617},"7109":{"code":"7109","region":"Zamboanga del Norte","city":"Olingan","latitude":8.53139,"longitude":123.31944},"7122":{"code":"7122","region":"Zamboanga del Sur","city":"Tagasilay","latitude":7.3025,"longitude":122.25861},"7200":{"code":"7200","region":"Misamis Occidental","city":"Ozamis","latitude":8.14583,"longitude":123.84444},"7202":{"code":"7202","region":"Misamis Occidental","city":"Tudela","latitude":8.2472,"longitude":123.8424},"7207":{"code":"7207","region":"Misamis Occidental","city":"Oroquieta","latitude":8.48583,"longitude":123.80444},"7210":{"code":"7210","region":"Laguna","city":"Calamba","latitude":14.21167,"longitude":121.16528},"7213":{"code":"7213","region":"Negros Oriental","city":"Bais","latitude":9.59111,"longitude":123.12278},"7215":{"code":"7215","region":"Misamis Occidental","city":"Bonifacio","latitude":8.0525,"longitude":123.6142},"7300":{"code":"7300","region":"Basilan","city":"Santa Clara","latitude":6.6782,"longitude":122.06},"7401":{"code":"7401","region":"Sulu","city":"Bangkal","latitude":6.06667,"longitude":121.06667},"7410":{"code":"7410","region":"Palawan","city":"Baheli","latitude":9.996,"longitude":118.7857},"7500":{"code":"7500","region":"Tawi-Tawi","city":"Bongao","latitude":5.02917,"longitude":119.77306},"8000":{"code":"8000","region":"Davao del Sur","city":"Davao","latitude":7.07306,"longitude":125.61278},"8006":{"code":"8006","region":"Davao del Sur","city":"Astorga","latitude":6.90722,"longitude":125.45583},"8007":{"code":"8007","region":"Davao del Sur","city":"Hagonoy","latitude":6.68333,"longitude":125.32556},"8010":{"code":"8010","region":"Davao del Sur","city":"Bulacan","latitude":6.5675,"longitude":125.42111},"8106":{"code":"8106","region":"Davao del Sur","city":"Nabunturan","latitude":7.60778,"longitude":125.96639},"8108":{"code":"8108","region":"Davao del Sur","city":"Mawab","latitude":7.50806,"longitude":125.91694},"8109":{"code":"8109","region":"Davao del Sur","city":"Compostela","latitude":7.67306,"longitude":126.08889},"8113":{"code":"8113","region":"Davao del Sur","city":"La Libertad","latitude":7.48028,"longitude":125.64722},"8114":{"code":"8114","region":"Davao del Sur","city":"Maco","latitude":7.36194,"longitude":125.85528},"8117":{"code":"8117","region":"Davao Oriental","city":"Tombongon","latitude":7.0792,"longitude":125.9486},"8118":{"code":"8118","region":"Zamboanga del Sur","city":"Mahayag","latitude":7.21667,"longitude":125.61944},"8119":{"code":"8119","region":"Davao del Sur","city":"Tagum","latitude":7.44778,"longitude":125.80778},"8120":{"code":"8120","region":"Davao del Sur","city":"Kaputian","latitude":6.96583,"longitude":125.72611},"8200":{"code":"8200","region":"Davao Oriental","city":"Baon","latitude":6.79562,"longitude":126.08778},"8300":{"code":"8300","region":"Surigao del Sur","city":"Tandag","latitude":9.07833,"longitude":126.19861},"8302":{"code":"8302","region":"Surigao del Sur","city":"Bacolod","latitude":8.93167,"longitude":126.28944},"8308":{"code":"8308","region":"Surigao del Sur","city":"Gamut","latitude":8.53028,"longitude":126.24222},"8309":{"code":"8309","region":"Nueva Ecija","city":"San Francisco","latitude":8.53556,"longitude":125.95},"8310":{"code":"8310","region":"Surigao del Sur","city":"Loyola","latitude":8.335,"longitude":126.33472},"8311":{"code":"8311","region":"Leyte","city":"Tanauan","latitude":11.10944,"longitude":125.01556},"8312":{"code":"8312","region":"Davao Oriental","city":"Cateel","latitude":7.79139,"longitude":126.45333},"8313":{"code":"8313","region":"Aklan","city":"Lalab","latitude":11.5749,"longitude":122.4284},"8400":{"code":"8400","region":"Surigao del Norte","city":"Surigao","latitude":9.78389,"longitude":125.48889},"8403":{"code":"8403","region":"Surigao del Norte","city":"Placer","latitude":9.65417,"longitude":125.6025},"8412":{"code":"8412","region":"Surigao del Norte","city":"Dinagat","latitude":9.95611,"longitude":125.59333},"8417":{"code":"8417","region":"Surigao del Norte","city":"Pilar","latitude":9.865,"longitude":126.09944},"8420":{"code":"8420","region":"Bataan","city":"Balanga","latitude":14.67611,"longitude":120.53611},"8427":{"code":"8427","region":"Iloilo","city":"San Rafael","latitude":11.1781,"longitude":122.8273},"8502":{"code":"8502","region":"Agusan del Sur","city":"Bayugan","latitude":8.75611,"longitude":125.7675},"8506":{"code":"8506","region":"Agusan del Norte","city":"Libertad","latitude":8.1075,"longitude":126.02639},"8508":{"code":"8508","region":"Agusan del Sur","city":"Lapinigan","latitude":8.42056,"longitude":125.9825},"8600":{"code":"8600","region":"Agusan del Norte","city":"Butuan","latitude":8.94917,"longitude":125.54361},"8601":{"code":"8601","region":"Nueva Ecija","city":"Rizal","latitude":8.92917,"longitude":125.39861},"8603":{"code":"8603","region":"Tarlac","city":"Salcedo","latitude":15.85722,"longitude":120.6},"8606":{"code":"8606","region":"Agusan del Norte","city":"Cabadbaran","latitude":9.12361,"longitude":125.53444},"8702":{"code":"8702","region":"Bukidnon","city":"Impalutao","latitude":8.25778,"longitude":125.0275},"8704":{"code":"8704","region":"Southern Leyte","city":"Malitbog","latitude":10.16,"longitude":124.99917},"8709":{"code":"8709","region":"Misamis Oriental","city":"Claveria","latitude":8.61,"longitude":124.89472},"8713":{"code":"8713","region":"Bukidnon","city":"Kadingilan","latitude":7.60111,"longitude":124.90861},"8714":{"code":"8714","region":"Bukidnon","city":"Maramag","latitude":7.76333,"longitude":125.00528},"8721":{"code":"8721","region":"Bukidnon","city":"Damulog","latitude":7.48361,"longitude":124.94306},"8722":{"code":"8722","region":"Bukidnon","city":"Malaybalay","latitude":8.15,"longitude":125.08333},"9000":{"code":"9000","region":"Misamis Oriental","city":"Cagayan de Oro","latitude":8.483333,"longitude":124.65},"9002":{"code":"9002","region":"Misamis Oriental","city":"Villanueva","latitude":8.58889,"longitude":124.77556},"9006":{"code":"9006","region":"Misamis Oriental","city":"Napalitan","latitude":8.77528,"longitude":124.80222},"9008":{"code":"9008","region":"Zamboanga del Norte","city":"Leon Postigo","latitude":8.1551,"longitude":122.9311},"9014":{"code":"9014","region":"Misamis Oriental","city":"Mariano","latitude":8.83333,"longitude":125.11667},"9018":{"code":"9018","region":"Misamis Oriental","city":"Lourdes","latitude":8.525,"longitude":124.43222},"9020":{"code":"9020","region":"Misamis Oriental","city":"Gitagum","latitude":8.59667,"longitude":124.40639},"9021":{"code":"9021","region":"Agusan del Norte","city":"Bancasi","latitude":8.96667,"longitude":125.46667},"9023":{"code":"9023","region":"Misamis Oriental","city":"Naawan","latitude":8.43444,"longitude":124.28889},"9025":{"code":"9025","region":"Misamis Oriental","city":"Lugait","latitude":8.34111,"longitude":124.25917},"9100":{"code":"9100","region":"Camiguin","city":"Mambajao","latitude":9.2504,"longitude":124.7156},"9104":{"code":"9104","region":"Northern Samar","city":"Catarman","latitude":12.4989,"longitude":124.6377},"9200":{"code":"9200","region":"Lanao del Norte","city":"Iligan City","latitude":8.25,"longitude":124.4},"9201":{"code":"9201","region":"Lanao del Norte","city":"Mantampay","latitude":8.16667,"longitude":124.21667},"9202":{"code":"9202","region":"Lanao del Norte","city":"Kauswagan","latitude":8.19167,"longitude":124.08472},"9205":{"code":"9205","region":"Negros Occidental","city":"Mansilingan","latitude":10.63111,"longitude":122.97889},"9208":{"code":"9208","region":"Bulacan","city":"Plaridel","latitude":8.6214,"longitude":123.7101},"9210":{"code":"9210","region":"Lanao del Norte","city":"Tubod","latitude":8.0555,"longitude":123.7904},"9214":{"code":"9214","region":"Lanao del Norte","city":"Kapatagan","latitude":7.9003,"longitude":123.7692},"9218":{"code":"9218","region":"Lanao del Norte","city":"Pantar","latitude":8.06611,"longitude":124.25833},"9221":{"code":"9221","region":"Lanao del Norte","city":"Digkilaan","latitude":8.25111,"longitude":124.31722},"9222":{"code":"9222","region":"Misamis Oriental","city":"San Martin","latitude":8.56111,"longitude":124.77139},"9300":{"code":"9300","region":"Lanao del Sur","city":"Malabang","latitude":7.59028,"longitude":124.07028},"9401":{"code":"9401","region":"Cotabato","city":"Batasan","latitude":7.03333,"longitude":125.05},"9403":{"code":"9403","region":"Cotabato","city":"Bagontapay","latitude":6.85889,"longitude":124.90889},"9405":{"code":"9405","region":"Cotabato","city":"Linao","latitude":7.16778,"longitude":124.9675},"9406":{"code":"9406","region":"Cotabato","city":"Marbel","latitude":7.11583,"longitude":124.9125},"9407":{"code":"9407","region":"Cotabato","city":"Kabacan","latitude":7.10667,"longitude":124.82917},"9410":{"code":"9410","region":"Cotabato","city":"Midsayap","latitude":7.19083,"longitude":124.53028},"9500":{"code":"9500","region":"South Cotabato","city":"Klinan","latitude":6.18683,"longitude":125.13684},"9501":{"code":"9501","region":"Albay","city":"Alabel","latitude":6.10179,"longitude":125.29048},"9504":{"code":"9504","region":"South Cotabato","city":"Glamang","latitude":6.16255,"longitude":125.08392},"9505":{"code":"9505","region":"South Cotabato","city":"Tupi","latitude":6.33444,"longitude":124.95278},"9507":{"code":"9507","region":"South Cotabato","city":"Rotunda","latitude":6.52194,"longitude":124.89},"9508":{"code":"9508","region":"South Cotabato","city":"Panay","latitude":6.49778,"longitude":124.63833},"9510":{"code":"9510","region":"Sultan Kudarat","city":"Damawato","latitude":6.7,"longitude":124.78333},"9511":{"code":"9511","region":"Negros Occidental","city":"Paraiso","latitude":6.47361,"longitude":124.81083},"9512":{"code":"9512","region":"South Cotabato","city":"Surallah","latitude":6.36667,"longitude":124.73333},"9517":{"code":"9517","region":"South Cotabato","city":"Maasin","latitude":5.8575,"longitude":125.00611},"9600":{"code":"9600","region":"Cotabato","city":"Salimbao","latitude":7.2225,"longitude":124.25333},"9611":{"code":"9611","region":"Sultan Kudarat","city":"Mariano Marcos","latitude":6.79722,"longitude":124.63361},"9700":{"code":"9700","region":"Lanao del Sur","city":"Marawi","latitude":7.99861,"longitude":124.29278},"9701":{"code":"9701","region":"Lanao del Sur","city":"Pawak","latitude":8.01634,"longitude":124.25647},"9708":{"code":"9708","region":"Cotabato","city":"Tamontaka","latitude":7.18056,"longitude":124.22556},"9800":{"code":"9800","region":"Sultan Kudarat","city":"Tacurong","latitude":6.6925,"longitude":124.67639},"9805":{"code":"9805","region":"Sultan Kudarat","city":"Isulan","latitude":6.62944,"longitude":124.605},"":{"code":"","region":"","city":"","latitude":14.6042,"longitude":120.9822}}}