{"id":"RE","country":"Reunion","postal":{"97412":{"code":"97412","region":"Reunion","city":"Bras-Panon","latitude":-20.99667,"longitude":55.67823},"97413":{"code":"97413","region":"Reunion","city":"Cilaos","latitude":-21.13357,"longitude":55.4719},"97414":{"code":"97414","region":"Reunion","city":"L'Entre-Deux","latitude":-21.23333,"longitude":55.46667},"97420":{"code":"97420","region":"Reunion","city":"Le Port","latitude":-20.9373,"longitude":55.29189},"97425":{"code":"97425","region":"Reunion","city":"Les Avirons","latitude":-21.24181,"longitude":55.33938},"97426":{"code":"97426","region":"Reunion","city":"Trois-Bassins","latitude":-21.1,"longitude":55.3},"97429":{"code":"97429","region":"Reunion","city":"Petite-Ile","latitude":-21.35,"longitude":55.56667},"97430":{"code":"97430","region":"Reunion","city":"Le Tampon","latitude":-21.28309,"longitude":55.51802},"97432":{"code":"97432","region":"Reunion","city":"Saint-Pierre","latitude":-21.3393,"longitude":55.47811},"97433":{"code":"97433","region":"Reunion","city":"Salazie","latitude":-21.02734,"longitude":55.539},"97436":{"code":"97436","region":"Reunion","city":"Saint-Leu","latitude":-21.17059,"longitude":55.28824},"97439":{"code":"97439","region":"Reunion","city":"Sainte-Rose","latitude":-21.12983,"longitude":55.79629},"97440":{"code":"97440","region":"Reunion","city":"Saint-Andre","latitude":-20.96333,"longitude":55.65031},"97441":{"code":"97441","region":"Reunion","city":"Sainte-Suzanne","latitude":-20.90614,"longitude":55.60886},"97442":{"code":"97442","region":"Reunion","city":"Saint-Philippe","latitude":-21.35852,"longitude":55.76795},"97450":{"code":"97450","region":"Reunion","city":"Saint-Louis","latitude":-21.28585,"longitude":55.41124},"97470":{"code":"97470","region":"Reunion","city":"Saint-Benoit","latitude":-21.03801,"longitude":55.71937},"97480":{"code":"97480","region":"Reunion","city":"Saint-Joseph","latitude":-21.37838,"longitude":55.61918},"97490":{"code":"97490","region":"Reunion","city":"Saint-Denis","latitude":-20.88231,"longitude":55.4504}}}