{"id":"BB","country":"Barbados","postal":{"BB12001":{"code":"BB12001","region":"Saint Michael","city":"Bridgetown","latitude":13.1,"longitude":-59.61667},"BB17154":{"code":"BB17154","region":"Christ Church","city":"Oistins","latitude":13.06667,"longitude":-59.53333},"BB11145":{"code":"BB11145","region":"Saint Michael","city":"Bridgetown","latitude":13.1,"longitude":-59.61667},"BB24016":{"code":"BB24016","region":"Saint James","city":"Holetown","latitude":13.18672,"longitude":-59.63808},"":{"code":"","region":"Saint Thomas","city":"Redmans","latitude":13.1591,"longitude":-59.612},"BB11000":{"code":"BB11000","region":"Saint Peter","city":"Speightstown","latitude":13.25,"longitude":-59.65},"BB21054":{"code":"BB21054","region":"Saint Joseph","city":"Bathsheba","latitude":13.21667,"longitude":-59.51667}}}