{"id":"ME","country":"Montenegro","postal":{"81000":{"code":"81000","region":"Podgorica","city":"Podgorica","latitude":42.44111,"longitude":19.26361},"81210":{"code":"81210","region":"Kolasin","city":"Kolasin","latitude":42.82229,"longitude":19.51653},"81250":{"code":"81250","region":"Cetinje","city":"Cetinje","latitude":42.39063,"longitude":18.91417},"81400":{"code":"81400","region":"Niksic","city":"Niksic","latitude":42.7731,"longitude":18.94446},"81410":{"code":"81410","region":"Danilovgrad","city":"Danilovgrad","latitude":42.55384,"longitude":19.14608},"81412":{"code":"81412","region":"Danilovgrad","city":"Spuz","latitude":42.5075,"longitude":19.19417},"83000":{"code":"83000","region":"Niksic","city":"Niksic","latitude":42.7731,"longitude":18.94446},"84205":{"code":"84205","region":"Mojkovac","city":"Mojkovac","latitude":42.96044,"longitude":19.5833},"84220":{"code":"84220","region":"Zabljak","city":"Zabljak","latitude":43.15423,"longitude":19.12325},"85000":{"code":"85000","region":"Bar","city":"Bar","latitude":42.09306,"longitude":19.10028},"85300":{"code":"85300","region":"Budva","city":"Petrovac na Moru","latitude":42.20556,"longitude":18.9425},"85310":{"code":"85310","region":"Budva","city":"Budva","latitude":42.28639,"longitude":18.84},"85320":{"code":"85320","region":"Tivat","city":"Tivat","latitude":42.43639,"longitude":18.69611},"85330":{"code":"85330","region":"Kotor","city":"Kotor","latitude":42.42067,"longitude":18.76825},"85331":{"code":"85331","region":"Kotor","city":"Dobrota","latitude":42.45417,"longitude":18.76833},"85337":{"code":"85337","region":"Kotor","city":"Risan","latitude":42.515,"longitude":18.69556},"85340":{"code":"85340","region":"Herceg-Novi","city":"Herceg-Novi","latitude":42.45306,"longitude":18.5375},"85343":{"code":"85343","region":"Herceg-Novi","city":"Bijela","latitude":42.45333,"longitude":18.65556},"85347":{"code":"85347","region":"Herceg-Novi","city":"Igalo","latitude":42.46007,"longitude":18.50647},"85354":{"code":"85354","region":"Bar","city":"Stari Bar","latitude":42.09,"longitude":19.13306},"85355":{"code":"85355","region":"Bar","city":"Sutomore","latitude":42.14278,"longitude":19.04667},"85360":{"code":"85360","region":"Ulcinj","city":"Ulcinj","latitude":41.92936,"longitude":19.22436},"":{"code":"","region":"Plav","city":"Skic","latitude":42.6064,"longitude":19.9436}}}