{"id":"MZ","country":"Mozambique","postal":{"457":{"code":"457","region":"Maputo","city":"Maputo","latitude":-25.96528,"longitude":32.58917},"1102":{"code":"1102","region":"Maputo","city":"Maputo","latitude":-25.96528,"longitude":32.58917},"1112":{"code":"1112","region":"Maputo","city":"Matola","latitude":-25.96222,"longitude":32.45889},"1200":{"code":"1200","region":"Gaza","city":"Xai-Xai","latitude":-25.05194,"longitude":33.64417},"1202":{"code":"1202","region":"Gaza","city":"Macia","latitude":-25.02694,"longitude":33.09889},"1204":{"code":"1204","region":"Gaza","city":"Chokwe","latitude":-24.53333,"longitude":32.98333},"1210":{"code":"1210","region":"Gaza","city":"Manjacaze","latitude":-24.71167,"longitude":33.88278},"1300":{"code":"1300","region":"Inhambane","city":"Inhambane","latitude":-23.865,"longitude":35.38333},"2102":{"code":"2102","region":"Sofala","city":"Beira","latitude":-19.84361,"longitude":34.83889},"2203":{"code":"2203","region":"Manica","city":"Chimoio","latitude":-19.11639,"longitude":33.48333},"2303":{"code":"2303","region":"Tete","city":"Tete","latitude":-16.15639,"longitude":33.58667},"2400":{"code":"2400","region":"Zambezia","city":"Quelimane","latitude":-17.87861,"longitude":36.88833},"3100":{"code":"3100","region":"Nampula","city":"Nampula","latitude":-15.11646,"longitude":39.2666},"3101":{"code":"3101","region":"Nampula","city":"Antonio Enes","latitude":-16.2325,"longitude":39.90861},"3103":{"code":"3103","region":"Nampula","city":"Mutuali","latitude":-14.87056,"longitude":37.00444},"3112":{"code":"3112","region":"Nampula","city":"Cidade de Nacala","latitude":-14.54278,"longitude":40.67278},"3200":{"code":"3200","region":"Cabo Delgado","city":"Pemba","latitude":-12.97395,"longitude":40.51775},"3208":{"code":"3208","region":"Cabo Delgado","city":"Montepuez","latitude":-13.12556,"longitude":38.99972},"3300":{"code":"3300","region":"Niassa","city":"Lichinga","latitude":-13.31278,"longitude":35.24056},"":{"code":"","region":"","city":"","latitude":-25.96528,"longitude":32.58917}}}