{"id":"PR","country":"Puerto Rico","postal":{"00969":{"code":"00969","region":"Guaynabo","city":"Guaynabo","latitude":18.35745,"longitude":-66.111},"00646":{"code":"00646","region":"Dorado","city":"Dorado","latitude":18.45883,"longitude":-66.26767},"00926":{"code":"00926","region":"San Juan","city":"San Juan","latitude":18.46633,"longitude":-66.10572},"00751":{"code":"00751","region":"Salinas","city":"Coco","latitude":18.00719,"longitude":-66.25933},"00677":{"code":"00677","region":"Rincon","city":"Rincon","latitude":18.34023,"longitude":-67.2499},"00976":{"code":"00976","region":"Trujillo Alto","city":"Trujillo Alto","latitude":18.35467,"longitude":-66.00739},"00965":{"code":"00965","region":"Catano","city":"Catano","latitude":18.44134,"longitude":-66.11822},"00959":{"code":"00959","region":"Bayamon","city":"Bayamon","latitude":18.39856,"longitude":-66.15572},"00602":{"code":"00602","region":"Aguada","city":"Luyando","latitude":18.36439,"longitude":-67.1574},"00968":{"code":"00968","region":"Guaynabo","city":"Guaynabo","latitude":18.35745,"longitude":-66.111},"00659":{"code":"00659","region":"Hatillo","city":"Hatillo","latitude":18.48633,"longitude":-66.82545},"00754":{"code":"00754","region":"San Lorenzo","city":"San Lorenzo","latitude":18.1894,"longitude":-65.961},"00660":{"code":"00660","region":"Mayaguez","city":"Mayaguez","latitude":18.20107,"longitude":-67.13962},"00737":{"code":"00737","region":"Cayey","city":"Cayey","latitude":18.11191,"longitude":-66.166},"00987":{"code":"00987","region":"Carolina","city":"Carolina","latitude":18.38078,"longitude":-65.95739},"00949":{"code":"00949","region":"Toa Baja","city":"Sabana Seca","latitude":18.42689,"longitude":-66.18461},"00778":{"code":"00778","region":"Gurabo","city":"Gurabo","latitude":18.2544,"longitude":-65.97294},"00674":{"code":"00674","region":"Manati","city":"Manati","latitude":18.42745,"longitude":-66.49212},"00613":{"code":"00613","region":"Arecibo","city":"Arecibo","latitude":18.47244,"longitude":-66.71573},"00698":{"code":"00698","region":"Yauco","city":"Yauco","latitude":18.03496,"longitude":-66.8499},"00901":{"code":"00901","region":"San Juan","city":"San Juan","latitude":18.46633,"longitude":-66.10572},"00601":{"code":"00601","region":"Adjuntas","city":"Adjuntas","latitude":18.15849,"longitude":-66.80177},"00795":{"code":"00795","region":"Juana Diaz","city":"Rio Canas Abajo","latitude":18.0383,"longitude":-66.46767},"00794":{"code":"00794","region":"Barranquitas","city":"Barranquitas","latitude":18.18662,"longitude":-66.30628},"00726":{"code":"00726","region":"Caguas","city":"Caguas","latitude":18.23412,"longitude":-66.0485},"00733":{"code":"00733","region":"Ponce","city":"Ponce","latitude":18.01108,"longitude":-66.61406},"00703":{"code":"00703","region":"Aguas Buenas","city":"Sumidero","latitude":18.21857,"longitude":-66.12878},"00952":{"code":"00952","region":"Toa Baja","city":"Levittown","latitude":18.44995,"longitude":-66.18156},"00692":{"code":"00692","region":"Vega Alta","city":"Vega Alta","latitude":18.41217,"longitude":-66.33128},"00727":{"code":"00727","region":"Cidra","city":"Bayamon","latitude":18.17774,"longitude":-66.11322},"00783":{"code":"00783","region":"Corozal","city":"Corozal","latitude":18.34106,"longitude":-66.31684},"00744":{"code":"00744","region":"Naguabo","city":"Naguabo","latitude":18.21162,"longitude":-65.73488},"00676":{"code":"00676","region":"Moca","city":"Moca","latitude":18.39467,"longitude":-67.11324},"00725":{"code":"00725","region":"Caguas","city":"Caguas","latitude":18.23412,"longitude":-66.0485},"00910":{"code":"00910","region":"San Juan","city":"San Juan","latitude":18.46633,"longitude":-66.10572},"00653":{"code":"00653","region":"Guanica","city":"Guanica","latitude":17.97163,"longitude":-66.90795},"00957":{"code":"00957","region":"Toa Alta","city":"Pajaros","latitude":18.36856,"longitude":-66.21683},"00694":{"code":"00694","region":"Vega Baja","city":"Vega Baja","latitude":18.44439,"longitude":-66.38767},"00740":{"code":"00740","region":"Fajardo","city":"Fajardo","latitude":18.32579,"longitude":-65.65238},"00773":{"code":"00773","region":"Luquillo","city":"Luquillo","latitude":18.37245,"longitude":-65.71655},"00641":{"code":"00641","region":"Utuado","city":"Utuado","latitude":18.26551,"longitude":-66.70045},"00791":{"code":"00791","region":"Humacao","city":"Humacao","latitude":18.14968,"longitude":-65.82738},"00782":{"code":"00782","region":"Comerio","city":"Comerio","latitude":18.21801,"longitude":-66.226},"00638":{"code":"00638","region":"Ciales","city":"Ciales","latitude":18.33606,"longitude":-66.46878},"00777":{"code":"00777","region":"Municipio de Juncos","city":"Juncos","latitude":18.22746,"longitude":-65.921},"00771":{"code":"00771","region":"Las Piedras","city":"Las Piedras","latitude":18.18301,"longitude":-65.86627},"00678":{"code":"00678","region":"Camuy","city":"Piedra Gorda","latitude":18.43411,"longitude":-66.88768},"00617":{"code":"00617","region":"Barceloneta","city":"Bufalo","latitude":18.41828,"longitude":-66.57323},"00985":{"code":"00985","region":"Canovanas","city":"Canovanas","latitude":18.37773,"longitude":-65.90628},"00970":{"code":"00970","region":"Guaynabo","city":"Guaynabo","latitude":18.35745,"longitude":-66.111},"00603":{"code":"00603","region":"Aguadilla","city":"Aguadilla","latitude":18.42745,"longitude":-67.15407},"00650":{"code":"00650","region":"Florida","city":"Estancias de Florida","latitude":18.36662,"longitude":-66.56962},"00719":{"code":"00719","region":"Naranjito","city":"Naranjito","latitude":18.30079,"longitude":-66.24489},"00745":{"code":"00745","region":"Rio Grande","city":"Rio Grande","latitude":18.38023,"longitude":-65.83127},"00721":{"code":"00721","region":"Luquillo","city":"Playa Fortuna","latitude":18.37967,"longitude":-65.74516},"00995":{"code":"00995","region":"Arecibo","city":"Arecibo","latitude":18.47244,"longitude":-66.71573},"00993":{"code":"00993","region":"Humacao","city":"Humacao","latitude":18.14968,"longitude":-65.82738},"00786":{"code":"00786","region":"Aibonito","city":"Aibonito","latitude":18.13996,"longitude":-66.266},"00992":{"code":"00992","region":"Cayey","city":"Cayey","latitude":18.11191,"longitude":-66.166},"00606":{"code":"00606","region":"Maricao","city":"Maricao","latitude":18.18079,"longitude":-66.9799},"00715":{"code":"00715","region":"Ponce","city":"Ponce","latitude":18.01108,"longitude":-66.61406},"00624":{"code":"00624","region":"Penuelas","city":"Penuelas","latitude":18.05635,"longitude":-66.72156},"00766":{"code":"00766","region":"Villalba","city":"Villalba","latitude":18.12718,"longitude":-66.49212},"00623":{"code":"00623","region":"Cabo Rojo","city":"Cabo Rojo","latitude":18.08663,"longitude":-67.14573},"00637":{"code":"00637","region":"Sabana Grande","city":"Liborio Negron Torres","latitude":18.04302,"longitude":-66.9424},"00714":{"code":"00714","region":"Guayama","city":"Corazon","latitude":17.99274,"longitude":-66.08489},"00784":{"code":"00784","region":"Guayama","city":"Guayama","latitude":17.98413,"longitude":-66.11378},"00769":{"code":"00769","region":"Coamo","city":"Coamo","latitude":18.07996,"longitude":-66.35795},"00757":{"code":"00757","region":"Coamo","city":"Los Llanos","latitude":18.05524,"longitude":-66.40573},"00667":{"code":"00667","region":"Lajas","city":"La Parguera","latitude":17.97497,"longitude":-67.04657},"00785":{"code":"00785","region":"Guayanilla","city":"Guayanilla","latitude":18.01913,"longitude":-66.79184},"00683":{"code":"00683","region":"San German","city":"San German","latitude":18.08163,"longitude":-67.0449},"00662":{"code":"00662","region":"Isabela","city":"Mora","latitude":18.463,"longitude":-67.03268},"00687":{"code":"00687","region":"Morovis","city":"Morovis","latitude":18.32578,"longitude":-66.40656},"00627":{"code":"00627","region":"Camuy","city":"Camuy","latitude":18.48383,"longitude":-66.8449},"00688":{"code":"00688","region":"Arecibo","city":"Bajadero","latitude":18.42661,"longitude":-66.68323},"00739":{"code":"00739","region":"Cidra","city":"Parcelas Nuevas","latitude":18.14024,"longitude":-66.17239},"00742":{"code":"00742","region":"Ceiba","city":"Ceiba","latitude":18.26412,"longitude":-65.6485},"00723":{"code":"00723","region":"Patillas","city":"Patillas","latitude":18.00635,"longitude":-66.01572},"00610":{"code":"00610","region":"Anasco","city":"Anasco","latitude":18.28273,"longitude":-67.13962},"00918-1485":{"code":"00918-1485","region":"San Juan","city":"San Juan","latitude":18.46633,"longitude":-66.10572},"00954":{"code":"00954","region":"Toa Alta","city":"Toa Alta","latitude":18.38828,"longitude":-66.24822},"00604":{"code":"00604","region":"Aguadilla","city":"San Antonio","latitude":18.49217,"longitude":-67.09851},"00622":{"code":"00622","region":"Cabo Rojo","city":"Pole Ojea","latitude":17.97496,"longitude":-67.18518},"00669":{"code":"00669","region":"Camuy","city":"Quebrada","latitude":18.35662,"longitude":-66.83212},"00685":{"code":"00685","region":"San Sebastian","city":"San Sebastian","latitude":18.33662,"longitude":-66.99018},"00682":{"code":"00682","region":"Mayaguez","city":"Mayaguez","latitude":18.20107,"longitude":-67.13962},"00664":{"code":"00664","region":"Municipio de Jayuya","city":"Jayuya","latitude":18.21857,"longitude":-66.59156},"00670":{"code":"00670","region":"Las Marias","city":"Las Marias","latitude":18.2519,"longitude":-66.99212},"00991":{"code":"00991","region":"Caguas","city":"Caguas","latitude":18.23412,"longitude":-66.0485},"00729":{"code":"00729","region":"Canovanas","city":"Campo Rico","latitude":18.33717,"longitude":-65.89794},"00997":{"code":"00997","region":"Naranjito","city":"Naranjito","latitude":18.30079,"longitude":-66.24489},"00616":{"code":"00616","region":"Arecibo","city":"Animas","latitude":18.4455,"longitude":-66.6349},"00994":{"code":"00994","region":"Lares","city":"Lares","latitude":18.29467,"longitude":-66.87712},"00925":{"code":"00925","region":"Trujillo Alto","city":"Trujillo Alto","latitude":18.35467,"longitude":-66.00739},"00909":{"code":"00909","region":"San Juan","city":"San Juan","latitude":18.46633,"longitude":-66.10572},"00907":{"code":"00907","region":"San Juan","city":"San Juan","latitude":18.46633,"longitude":-66.10572},"00908":{"code":"00908","region":"San Juan","city":"San Juan","latitude":18.46633,"longitude":-66.10572},"00902":{"code":"00902","region":"San Juan","city":"San Juan","latitude":18.46633,"longitude":-66.10572},"00936":{"code":"00936","region":"San Juan","city":"San Juan","latitude":18.46633,"longitude":-66.10572},"00919":{"code":"00919","region":"San Juan","city":"San Juan","latitude":18.46633,"longitude":-66.10572},"00936-0998":{"code":"00936-0998","region":"San Juan","city":"San Juan","latitude":18.46633,"longitude":-66.10572},"00918":{"code":"00918","region":"San Juan","city":"San Juan","latitude":18.46633,"longitude":-66.10572},"00927":{"code":"00927","region":"San Juan","city":"San Juan","latitude":18.46633,"longitude":-66.10572},"00922":{"code":"00922","region":"San Juan","city":"San Juan","latitude":18.46633,"longitude":-66.10572},"00968-8059":{"code":"00968-8059","region":"Guaynabo","city":"Guaynabo","latitude":18.35745,"longitude":-66.111},"00920":{"code":"00920","region":"San Juan","city":"San Juan","latitude":18.46633,"longitude":-66.10572},"00970-7891":{"code":"00970-7891","region":"Guaynabo","city":"Guaynabo","latitude":18.35745,"longitude":-66.111},"00767":{"code":"00767","region":"Yabucoa","city":"Yabucoa","latitude":18.05052,"longitude":-65.87933},"00775":{"code":"00775","region":"Culebra","city":"Culebra","latitude":18.30301,"longitude":-65.30099},"00772":{"code":"00772","region":"Loiza","city":"Loiza","latitude":18.43134,"longitude":-65.88016},"00988-9632":{"code":"00988-9632","region":"Carolina","city":"Carolina","latitude":18.38078,"longitude":-65.95739},"00962":{"code":"00962","region":"Catano","city":"Catano","latitude":18.44134,"longitude":-66.11822},"00979":{"code":"00979","region":"Carolina","city":"Carolina","latitude":18.38078,"longitude":-65.95739},"00989":{"code":"00989","region":"Carolina","city":"Carolina","latitude":18.38078,"longitude":-65.95739},"00967":{"code":"00967","region":"Guaynabo","city":"Guaynabo","latitude":18.35745,"longitude":-66.111},"00961":{"code":"00961","region":"Bayamon","city":"Bayamon","latitude":18.39856,"longitude":-66.15572},"00765":{"code":"00765","region":"Vieques","city":"Vieques","latitude":18.14746,"longitude":-65.44488},"00656":{"code":"00656","region":"Guayanilla","city":"Magas Arriba","latitude":18.01746,"longitude":-66.76906},"00792-0819":{"code":"00792-0819","region":"Humacao","city":"Humacao","latitude":18.14968,"longitude":-65.82738},"00966":{"code":"00966","region":"Guaynabo","city":"Guaynabo","latitude":18.35745,"longitude":-66.111},"00717":{"code":"00717","region":"Ponce","city":"Ponce","latitude":18.01108,"longitude":-66.61406},"00960":{"code":"00960","region":"Cidra","city":"Bayamon","latitude":18.17774,"longitude":-66.11322},"00738":{"code":"00738","region":"Fajardo","city":"Fajardo","latitude":18.32579,"longitude":-65.65238},"00794-1705":{"code":"00794-1705","region":"Barranquitas","city":"Barranquitas","latitude":18.18662,"longitude":-66.30628},"00931":{"code":"00931","region":"San Juan","city":"San Juan","latitude":18.46633,"longitude":-66.10572},"00612":{"code":"00612","region":"Arecibo","city":"Arecibo","latitude":18.47244,"longitude":-66.71573},"00924":{"code":"00924","region":"San Juan","city":"San Juan","latitude":18.46633,"longitude":-66.10572},"00917":{"code":"00917","region":"San Juan","city":"San Juan","latitude":18.46633,"longitude":-66.10572},"00928":{"code":"00928","region":"Catano","city":"Catano","latitude":18.44134,"longitude":-66.11822},"00984-3500":{"code":"00984-3500","region":"Carolina","city":"Carolina","latitude":18.38078,"longitude":-65.95739},"00705":{"code":"00705","region":"Aibonito","city":"Aibonito","latitude":18.13996,"longitude":-66.266},"00929":{"code":"00929","region":"Trujillo Alto","city":"Trujillo Alto","latitude":18.35467,"longitude":-66.00739},"00906":{"code":"00906","region":"San Juan","city":"San Juan","latitude":18.46633,"longitude":-66.10572},"00923":{"code":"00923","region":"Trujillo Alto","city":"Trujillo Alto","latitude":18.35467,"longitude":-66.00739},"00707":{"code":"00707","region":"Maunabo","city":"Palo Seco","latitude":18.00747,"longitude":-65.93683},"00914":{"code":"00914","region":"San Juan","city":"San Juan","latitude":18.46633,"longitude":-66.10572},"00921":{"code":"00921","region":"San Juan","city":"San Juan","latitude":18.46633,"longitude":-66.10572},"00639":{"code":"00639","region":"San Juan","city":"San Juan","latitude":18.46633,"longitude":-66.10572},"00919-2017":{"code":"00919-2017","region":"San Juan","city":"San Juan","latitude":18.46633,"longitude":-66.10572}}}