{"id":"VE","country":"Venezuela, Bolivarian Republic of","postal":{"1050":{"code":"1050","region":"Distrito Capital","city":"Caracas","latitude":10.48801,"longitude":-66.87919},"1060":{"code":"1060","region":"Miranda","city":"Chacao","latitude":10.49598,"longitude":-66.85347},"1071":{"code":"1071","region":"Distrito Capital","city":"Caracas","latitude":10.48801,"longitude":-66.87919},"1162":{"code":"1162","region":"Vargas","city":"Catia La Mar","latitude":10.60383,"longitude":-67.03034},"1165":{"code":"1165","region":"Vargas","city":"Caraballeda","latitude":10.61119,"longitude":-66.85215},"1210":{"code":"1210","region":"Miranda","city":"Charallave","latitude":10.24247,"longitude":-66.85723},"1221":{"code":"1221","region":"Miranda","city":"Guatire","latitude":10.4762,"longitude":-66.54266},"2001":{"code":"2001","region":"Carabobo","city":"Valencia","latitude":10.16202,"longitude":-68.00765},"2054":{"code":"2054","region":"Falcon","city":"Chichiriviche","latitude":10.9333,"longitude":-68.27716},"2055":{"code":"2055","region":"Falcon","city":"Tucacas","latitude":10.7906,"longitude":-68.32577},"2103":{"code":"2103","region":"Aragua","city":"Maracay","latitude":10.24694,"longitude":-67.59583},"2105":{"code":"2105","region":"Aragua","city":"Las Tejerias","latitude":10.25237,"longitude":-67.18472},"2116":{"code":"2116","region":"Aragua","city":"Turmero","latitude":10.22388,"longitude":-67.47288},"2121":{"code":"2121","region":"Aragua","city":"La Victoria","latitude":10.21844,"longitude":-67.33017},"2126":{"code":"2126","region":"Aragua","city":"Villa de Cura","latitude":10.03863,"longitude":-67.48938},"2201":{"code":"2201","region":"Cojedes","city":"San Carlos","latitude":9.66124,"longitude":-68.58268},"2209":{"code":"2209","region":"Cojedes","city":"Tinaquillo","latitude":9.91861,"longitude":-68.30472},"2301":{"code":"2301","region":"Guarico","city":"Valle de La Pascua","latitude":9.21554,"longitude":-66.00734},"2312":{"code":"2312","region":"Guarico","city":"Calabozo","latitude":8.92416,"longitude":-67.42929},"2320":{"code":"2320","region":"Guarico","city":"Altagracia de Orituco","latitude":9.86005,"longitude":-66.38139},"2332":{"code":"2332","region":"Guarico","city":"Zaraza","latitude":9.35029,"longitude":-65.32452},"3001":{"code":"3001","region":"Lara","city":"Barquisimeto","latitude":10.07389,"longitude":-69.32278},"3050":{"code":"3050","region":"Lara","city":"Carora","latitude":10.17554,"longitude":-70.08274},"3057":{"code":"3057","region":"Lara","city":"El Tocuyo","latitude":9.78734,"longitude":-69.7937},"3061":{"code":"3061","region":"Lara","city":"Quibor","latitude":9.92866,"longitude":-69.6201},"3101":{"code":"3101","region":"Trujillo","city":"Valera","latitude":9.31778,"longitude":-70.60361},"3150":{"code":"3150","region":"Trujillo","city":"Trujillo","latitude":9.37084,"longitude":-70.43472},"3201":{"code":"3201","region":"Yaracuy","city":"San Felipe","latitude":10.33991,"longitude":-68.74247},"3202":{"code":"3202","region":"Yaracuy","city":"Chivacoa","latitude":10.16028,"longitude":-68.895},"3203":{"code":"3203","region":"Yaracuy","city":"Yaritagua","latitude":10.08,"longitude":-69.12611},"3205":{"code":"3205","region":"Yaracuy","city":"Nirgua","latitude":10.15526,"longitude":-68.5663},"3301":{"code":"3301","region":"Portuguesa","city":"Acarigua","latitude":9.55451,"longitude":-69.19564},"3303":{"code":"3303","region":"Portuguesa","city":"Araure","latitude":9.56009,"longitude":-69.21475},"3309":{"code":"3309","region":"Portuguesa","city":"Villa Bruzual","latitude":9.33278,"longitude":-69.12083},"3350":{"code":"3350","region":"Portuguesa","city":"Guanare","latitude":9.04183,"longitude":-69.74206},"4001":{"code":"4001","region":"Zulia","city":"San Carlos del Zulia","latitude":9.00003,"longitude":-71.91352},"4002":{"code":"4002","region":"Zulia","city":"Maracaibo","latitude":10.63167,"longitude":-71.64056},"4013":{"code":"4013","region":"Zulia","city":"Cabimas","latitude":10.38828,"longitude":-71.43992},"4016":{"code":"4016","region":"Zulia","city":"Lagunillas","latitude":10.13008,"longitude":-71.25946},"4020":{"code":"4020","region":"Zulia","city":"Santa Rita","latitude":10.53806,"longitude":-71.51694},"4021":{"code":"4021","region":"Zulia","city":"Machiques","latitude":10.06444,"longitude":-72.545},"4047":{"code":"4047","region":"Zulia","city":"Rosario","latitude":10.3258,"longitude":-72.31343},"4101":{"code":"4101","region":"Falcon","city":"Coro","latitude":11.4045,"longitude":-69.67344},"4102":{"code":"4102","region":"Falcon","city":"Punto Fijo","latitude":11.6956,"longitude":-70.19957},"5001":{"code":"5001","region":"Tachira","city":"San Cristobal","latitude":7.76694,"longitude":-72.225},"5007":{"code":"5007","region":"Tachira","city":"San Antonio del Tachira","latitude":7.81454,"longitude":-72.4431},"5020":{"code":"5020","region":"Tachira","city":"La Fria","latitude":8.22027,"longitude":-72.2439},"5030":{"code":"5030","region":"Tachira","city":"Rubio","latitude":7.70131,"longitude":-72.35569},"5101":{"code":"5101","region":"Merida","city":"Merida","latitude":8.59524,"longitude":-71.1434},"5145":{"code":"5145","region":"Merida","city":"El Vigia","latitude":8.61366,"longitude":-71.65284},"5201":{"code":"5201","region":"Barinas","city":"Alto Barinas","latitude":8.5931,"longitude":-70.2261},"5206":{"code":"5206","region":"Barinas","city":"Barinitas","latitude":8.76222,"longitude":-70.41111},"5210":{"code":"5210","region":"Apure","city":"Guasdalito","latitude":7.24241,"longitude":-70.73236},"6003":{"code":"6003","region":"Anzoategui","city":"Anaco","latitude":9.43889,"longitude":-64.47278},"6007":{"code":"6007","region":"Anzoategui","city":"Cantaura","latitude":9.30571,"longitude":-64.35841},"6016":{"code":"6016","region":"Anzoategui","city":"Barcelona","latitude":10.13333,"longitude":-64.7},"6023":{"code":"6023","region":"Anzoategui","city":"Puerto La Cruz","latitude":10.21667,"longitude":-64.61667},"6054":{"code":"6054","region":"Anzoategui","city":"El Tigre","latitude":8.88752,"longitude":-64.24544},"6101":{"code":"6101","region":"Sucre","city":"Cumana","latitude":10.46354,"longitude":-64.1775},"6150":{"code":"6150","region":"Sucre","city":"Carupano","latitude":10.66781,"longitude":-63.25849},"6201":{"code":"6201","region":"Monagas","city":"Maturin","latitude":9.75,"longitude":-63.17667},"6301":{"code":"6301","region":"Nueva Esparta","city":"Porlamar","latitude":10.95796,"longitude":-63.84906},"6311":{"code":"6311","region":"Nueva Esparta","city":"La Asuncion","latitude":11.03333,"longitude":-63.86278},"6401":{"code":"6401","region":"Delta Amacuro","city":"Tucupita","latitude":9.06222,"longitude":-62.05102},"7007":{"code":"7007","region":"Apure","city":"San Fernando Apure","latitude":7.88782,"longitude":-67.47236},"7101":{"code":"7101","region":"Amazonas","city":"Puerto Ayacucho","latitude":5.66389,"longitude":-67.62361},"8001":{"code":"8001","region":"Bolivar","city":"Ciudad Bolivar","latitude":8.12923,"longitude":-63.54086},"8011":{"code":"8011","region":"Bolivar","city":"Santa Elena de Uairen","latitude":4.602177,"longitude":-61.111243},"8050":{"code":"8050","region":"Bolivar","city":"Ciudad Guayana","latitude":8.35122,"longitude":-62.64102},"8052":{"code":"8052","region":"Bolivar","city":"Upata","latitude":8.00861,"longitude":-62.39889},"8055":{"code":"8055","region":"Bolivar","city":"Guasipati","latitude":7.47154,"longitude":-61.893584},"":{"code":"","region":"","city":"","latitude":10.48801,"longitude":-66.87919}}}