{
  "id": "CU",
  "country": "Cuba",
  "postal": {
    "10400": {
      "code": "10400",
      "region": "La Habana",
      "city": "Havana",
      "latitude": 23.13302,
      "longitude": -82.38304
    },
    "10800": {
      "code": "10800",
      "region": "La Habana",
      "city": "Santiago de las Vegas",
      "latitude": 22.97,
      "longitude": -82.38694
    },
    "20100": {
      "code": "20100",
      "region": "Pinar del Rio",
      "city": "Pinar del Rio",
      "latitude": 22.4175,
      "longitude": -83.69806
    },
    "22400": {
      "code": "22400",
      "region": "Pinar del Rio",
      "city": "Vinales",
      "latitude": 22.61639,
      "longitude": -83.70778
    },
    "32400": {
      "code": "32400",
      "region": "Artemisa",
      "city": "Bauta",
      "latitude": 22.98278,
      "longitude": -82.54639
    },
    "32900": {
      "code": "32900",
      "region": "Mayabeque",
      "city": "Santa Cruz del Norte",
      "latitude": 23.15389,
      "longitude": -81.92361
    },
    "33000": {
      "code": "33000",
      "region": "Mayabeque",
      "city": "Madruga",
      "latitude": 22.91139,
      "longitude": -81.85611
    },
    "40100": {
      "code": "40100",
      "region": "Matanzas",
      "city": "Matanzas",
      "latitude": 23.04111,
      "longitude": -81.5775
    },
    "42200": {
      "code": "42200",
      "region": "Matanzas",
      "city": "Varadero",
      "latitude": 23.15361,
      "longitude": -81.25139
    },
    "43100": {
      "code": "43100",
      "region": "Matanzas",
      "city": "Jaguey Grande",
      "latitude": 22.52694,
      "longitude": -81.12861
    },
    "50100": {
      "code": "50100",
      "region": "Villa Clara",
      "city": "Santa Clara",
      "latitude": 22.4,
      "longitude": -79.96667
    },
    "55100": {
      "code": "55100",
      "region": "Cienfuegos",
      "city": "Cienfuegos",
      "latitude": 22.14611,
      "longitude": -80.43556
    },
    "57200": {
      "code": "57200",
      "region": "Holguin",
      "city": "Holguin",
      "latitude": 20.88722,
      "longitude": -76.26306
    },
    "57600": {
      "code": "57600",
      "region": "Cienfuegos",
      "city": "Cumanayagua",
      "latitude": 22.14944,
      "longitude": -80.20222
    },
    "62100": {
      "code": "62100",
      "region": "Sancti Spiritus",
      "city": "Yaguajay",
      "latitude": 22.32722,
      "longitude": -79.23778
    },
    "62410": {
      "code": "62410",
      "region": "Sancti Spiritus",
      "city": "Cabaiguan",
      "latitude": 22.07889,
      "longitude": -79.49917
    },
    "62600": {
      "code": "62600",
      "region": "Sancti Spiritus",
      "city": "Trinidad",
      "latitude": 21.80194,
      "longitude": -79.98417
    },
    "67210": {
      "code": "67210",
      "region": "Ciego de Avila",
      "city": "Moron",
      "latitude": 22.10944,
      "longitude": -78.6275
    },
    "73100": {
      "code": "73100",
      "region": "Camaguey",
      "city": "El Caney",
      "latitude": 21.3,
      "longitude": -78.48333
    },
    "74420": {
      "code": "74420",
      "region": "Camaguey",
      "city": "Camaguey",
      "latitude": 21.38083,
      "longitude": -77.91694
    },
    "82100": {
      "code": "82100",
      "region": "Holguin",
      "city": "Jobabo",
      "latitude": 20.96917,
      "longitude": -76.29944
    },
    "85100": {
      "code": "85100",
      "region": "Granma",
      "city": "Bayamo",
      "latitude": 20.37917,
      "longitude": -76.64333
    },
    "87510": {
      "code": "87510",
      "region": "Granma",
      "city": "Manzanillo",
      "latitude": 20.34333,
      "longitude": -77.11667
    },
    "92300": {
      "code": "92300",
      "region": "Santiago de Cuba",
      "city": "Santiago de Cuba",
      "latitude": 20.02472,
      "longitude": -75.82194
    }
  }
}