{
  "id": "MN",
  "country": "Mongolia",
  "postal": {
    "15172": {
      "code": "15172",
      "region": "Ulaanbaatar",
      "city": "Ulaanbaatar",
      "latitude": 47.90771,
      "longitude": 106.88324
    },
    "21045": {
      "code": "21045",
      "region": "Dornod",
      "city": "Choybalsan",
      "latitude": 48.06667,
      "longitude": 114.5
    },
    "41037": {
      "code": "41037",
      "region": "Tov",
      "city": "Bayandelger",
      "latitude": 47.72732,
      "longitude": 108.11062
    },
    "41107": {
      "code": "41107",
      "region": "Tov",
      "city": "Zuunmod",
      "latitude": 47.70693,
      "longitude": 106.95276
    },
    "43065": {
      "code": "43065",
      "region": "Selenge",
      "city": "Dzuunharaa",
      "latitude": 48.85229,
      "longitude": 106.45786
    },
    "43131": {
      "code": "43131",
      "region": "Darhan uul",
      "city": "Hongor",
      "latitude": 49.23012,
      "longitude": 105.89674
    },
    "44053": {
      "code": "44053",
      "region": "Dornogovi",
      "city": "Nuden",
      "latitude": 43.58333,
      "longitude": 110.46667
    },
    "44109": {
      "code": "44109",
      "region": "Dornogovi",
      "city": "Saynshand",
      "latitude": 44.88239,
      "longitude": 110.11631
    },
    "45021": {
      "code": "45021",
      "region": "Selenge",
      "city": "Sharingol",
      "latitude": 49.23733,
      "longitude": 106.43005
    },
    "45071": {
      "code": "45071",
      "region": "Darhan uul",
      "city": "Darhan",
      "latitude": 49.48667,
      "longitude": 105.92278
    },
    "46085": {
      "code": "46085",
      "region": "Omnogovi",
      "city": "Dalandzadgad",
      "latitude": 43.57083,
      "longitude": 104.425
    },
    "61013": {
      "code": "61013",
      "region": "Orhon",
      "city": "Erdenet",
      "latitude": 49.03333,
      "longitude": 104.08333
    },
    "62025": {
      "code": "62025",
      "region": "Ovorhangay",
      "city": "Ongon",
      "latitude": 46.98259,
      "longitude": 103.78389
    },
    "62111": {
      "code": "62111",
      "region": "Ovorhangay",
      "city": "Hujirt",
      "latitude": 46.89657,
      "longitude": 102.78259
    },
    "63031": {
      "code": "63031",
      "region": "Bulgan",
      "city": "Sort",
      "latitude": 49.31751,
      "longitude": 104.38196
    },
    "63083": {
      "code": "63083",
      "region": "Bulgan",
      "city": "Bulgan",
      "latitude": 48.8125,
      "longitude": 103.53472
    },
    "64229": {
      "code": "64229",
      "region": "Bayanhongor",
      "city": "Buyant",
      "latitude": 46.1664,
      "longitude": 98.69173
    },
    "67139": {
      "code": "67139",
      "region": "Hovsgol",
      "city": "Murun-kuren",
      "latitude": 49.63417,
      "longitude": 100.1625
    },
    "82177": {
      "code": "82177",
      "region": "Govi-Altay",
      "city": "Bayangol",
      "latitude": 45.55655,
      "longitude": 94.36449
    },
    "83123": {
      "code": "83123",
      "region": "Bayan-Olgiy",
      "city": "OElgiy",
      "latitude": 48.96833,
      "longitude": 89.9625
    },
    "84055": {
      "code": "84055",
      "region": "Hovd",
      "city": "Tsetsegnuur",
      "latitude": 46.6,
      "longitude": 93.26667
    },
    "84173": {
      "code": "84173",
      "region": "Hovd",
      "city": "Hovd",
      "latitude": 48.00556,
      "longitude": 91.64194
    }
  }
}