{
  "id": "NC",
  "country": "New Caledonia",
  "postal": {
    "98800": {
      "code": "98800",
      "region": "Province Sud",
      "city": "Noumea",
      "latitude": -22.27631,
      "longitude": 166.4572
    },
    "98803": {
      "code": "98803",
      "region": "Province Sud",
      "city": "Noumea",
      "latitude": -22.27631,
      "longitude": 166.4572
    },
    "98807": {
      "code": "98807",
      "region": "Province Sud",
      "city": "Noumea",
      "latitude": -22.27631,
      "longitude": 166.4572
    },
    "98812": {
      "code": "98812",
      "region": "Province Sud",
      "city": "Bouloupari",
      "latitude": -21.86667,
      "longitude": 166.05
    },
    "98815": {
      "code": "98815",
      "region": "Province Nord",
      "city": "Hienghene",
      "latitude": -20.68333,
      "longitude": 164.93333
    },
    "98817": {
      "code": "98817",
      "region": "Province Nord",
      "city": "Kaala-Gomen",
      "latitude": -20.66667,
      "longitude": 164.4
    },
    "98820": {
      "code": "98820",
      "region": "Province des iles Loyaute",
      "city": "We",
      "latitude": -20.91687,
      "longitude": 167.26461
    },
    "98822": {
      "code": "98822",
      "region": "Province Nord",
      "city": "Poindimie",
      "latitude": -20.93333,
      "longitude": 165.33333
    },
    "98833": {
      "code": "98833",
      "region": "Province Sud",
      "city": "Vao",
      "latitude": -22.66667,
      "longitude": 167.48333
    },
    "98850": {
      "code": "98850",
      "region": "Province Nord",
      "city": "Koumac",
      "latitude": -20.56667,
      "longitude": 164.28333
    },
    "98870": {
      "code": "98870",
      "region": "Province Sud",
      "city": "Bourail",
      "latitude": -21.56667,
      "longitude": 165.48333
    },
    "98880": {
      "code": "98880",
      "region": "Province Sud",
      "city": "La Foa",
      "latitude": -21.71079,
      "longitude": 165.82764
    },
    "98889": {
      "code": "98889",
      "region": "Province Sud",
      "city": "Paita",
      "latitude": -22.13333,
      "longitude": 166.36667
    }
  }
}