{
  "id": "PF",
  "country": "French Polynesia",
  "postal": {
    "98705": {
      "code": "98705",
      "region": "Iles du Vent",
      "city": "Otutara",
      "latitude": -17.76667,
      "longitude": -149.41667
    },
    "98706": {
      "code": "98706",
      "region": "Iles du Vent",
      "city": "Mahina",
      "latitude": -17.50648,
      "longitude": -149.48899
    },
    "98708": {
      "code": "98708",
      "region": "Iles du Vent",
      "city": "Tiarei",
      "latitude": -17.53333,
      "longitude": -149.33333
    },
    "98711": {
      "code": "98711",
      "region": "Iles du Vent",
      "city": "Paea",
      "latitude": -17.68333,
      "longitude": -149.58333
    },
    "98713": {
      "code": "98713",
      "region": "Iles du Vent",
      "city": "Papeete",
      "latitude": -17.53333,
      "longitude": -149.56667
    },
    "98719": {
      "code": "98719",
      "region": "Iles du Vent",
      "city": "Afaahiti",
      "latitude": -17.75,
      "longitude": -149.28333
    },
    "98722": {
      "code": "98722",
      "region": "Iles du Vent",
      "city": "Tautira",
      "latitude": -17.73333,
      "longitude": -149.15
    },
    "98724": {
      "code": "98724",
      "region": "Iles du Vent",
      "city": "Tohautu",
      "latitude": -17.75,
      "longitude": -149.31667
    },
    "98725": {
      "code": "98725",
      "region": "Iles du Vent",
      "city": "Vairao",
      "latitude": -17.78333,
      "longitude": -149.28333
    },
    "98728": {
      "code": "98728",
      "region": "Iles du Vent",
      "city": "Paopao",
      "latitude": -17.5,
      "longitude": -149.81667
    },
    "98729": {
      "code": "98729",
      "region": "Iles du Vent",
      "city": "Papetoai",
      "latitude": -17.49613,
      "longitude": -149.87291
    },
    "98730": {
      "code": "98730",
      "region": "Iles Sous-le-Vent",
      "city": "Vaitape",
      "latitude": -16.51667,
      "longitude": -151.75
    },
    "98735": {
      "code": "98735",
      "region": "Iles Sous-le-Vent",
      "city": "Uturoa",
      "latitude": -16.73333,
      "longitude": -151.43333
    },
    "98741": {
      "code": "98741",
      "region": "Iles Marquises",
      "city": "Atuona",
      "latitude": -9.8,
      "longitude": -139.03333
    },
    "": {
      "code": "",
      "region": "Iles Tuamotu-Gambier",
      "city": "Rikitea",
      "latitude": -23.12028,
      "longitude": -134.96917
    }
  }
}